{
    "type":"FeatureCollection",
    "name":"union",
    "crs" : {
        "type" : "name",
        "properties":{ "name" : "urn:ogc:def:crs:EPSG::4326" }
            },
    "features":[{ "type": "Feature", "properties": { "marker-color":"red", "Store": "Coles", "Name": "Coles Darwin", "Type": "Coles Supermarkets", "latitude": -12.464076, "longitude": 130.840063 }, "geometry": { "type": "Point", "coordinates": [ 130.840063, -12.464076 ] } },
{ "type": "Feature", "properties": { "marker-color":"red", "Store": "Coles", "Name": "Coles Express Darwin City", "Type": "Coles Express", "latitude": -12.454479, "longitude": 130.838773 }, "geometry": { "type": "Point", "coordinates": [ 130.838773, -12.454479 ] } },
{ "type": "Feature", "properties": { "marker-color":"red", "Store": "Coles", "Name": "Coles Express Winnellie", "Type": "Coles Express", "latitude": -12.425722, "longitude": 130.869226 }, "geometry": { "type": "Point", "coordinates": [ 130.869226, -12.425722 ] } },
{ "type": "Feature", "properties": { "marker-color":"red", "Store": "Coles", "Name": "Coles Express Nightcliff", "Type": "Coles Express", "latitude": -12.388298, "longitude": 130.851701 }, "geometry": { "type": "Point", "coordinates": [ 130.851701, -12.388298 ] } },
{ "type": "Feature", "properties": { "marker-color":"red", "Store": "Coles", "Name": "Coles Northlakes", "Type": "Coles Supermarkets", "latitude": -12.39574, "longitude": 130.894924 }, "geometry": { "type": "Point", "coordinates": [ 130.894924, -12.39574 ] } },
{ "type": "Feature", "properties": { "marker-color":"red", "Store": "Coles", "Name": "Coles Express Casuarina (nt)", "Type": "Coles Express", "latitude": -12.376822, "longitude": 130.882005 }, "geometry": { "type": "Point", "coordinates": [ 130.882005, -12.376822 ] } },
{ "type": "Feature", "properties": { "marker-color":"red", "Store": "Coles", "Name": "Coles Casuarina", "Type": "Coles Supermarkets", "latitude": -12.376259, "longitude": 130.880433 }, "geometry": { "type": "Point", "coordinates": [ 130.880433, -12.376259 ] } },
{ "type": "Feature", "properties": { "marker-color":"red", "Store": "Coles", "Name": "Coles Bradshaw St", "Type": "Coles Supermarkets", "latitude": -12.371249, "longitude": 130.88138 }, "geometry": { "type": "Point", "coordinates": [ 130.88138, -12.371249 ] } },
{ "type": "Feature", "properties": { "marker-color":"red", "Store": "Coles", "Name": "Coles Express Fairway Waters", "Type": "Coles Express", "latitude": -12.480144, "longitude": 130.970135 }, "geometry": { "type": "Point", "coordinates": [ 130.970135, -12.480144 ] } },
{ "type": "Feature", "properties": { "marker-color":"red", "Store": "Coles", "Name": "Coles Express Palmerston", "Type": "Coles Express", "latitude": -12.473721, "longitude": 130.9841 }, "geometry": { "type": "Point", "coordinates": [ 130.9841, -12.473721 ] } },
{ "type": "Feature", "properties": { "marker-color":"red", "Store": "Coles", "Name": "Coles Express Coolalinga", "Type": "Coles Express", "latitude": -12.51962, "longitude": 131.04227 }, "geometry": { "type": "Point", "coordinates": [ 131.04227, -12.51962 ] } },
{ "type": "Feature", "properties": { "marker-color":"red", "Store": "Coles", "Name": "Coles Coolalinga", "Type": "Coles Supermarkets", "latitude": -12.520793, "longitude": 131.041296 }, "geometry": { "type": "Point", "coordinates": [ 131.041296, -12.520793 ] } },
{ "type": "Feature", "properties": { "marker-color":"red", "Store": "Coles", "Name": "Coles Express Katherine", "Type": "Coles Express", "latitude": -14.46551, "longitude": 132.262743 }, "geometry": { "type": "Point", "coordinates": [ 132.262743, -14.46551 ] } },
{ "type": "Feature", "properties": { "marker-color":"red", "Store": "Coles", "Name": "Coles Oasis (palmerston)", "Type": "Coles Supermarkets", "latitude": -12.483354, "longitude": 130.985361 }, "geometry": { "type": "Point", "coordinates": [ 130.985361, -12.483354 ] } },
{ "type": "Feature", "properties": { "marker-color":"red", "Store": "Coles", "Name": "Coles Palmerston", "Type": "Coles Supermarkets", "latitude": -12.481748, "longitude": 130.984535 }, "geometry": { "type": "Point", "coordinates": [ 130.984535, -12.481748 ] } },
{ "type": "Feature", "properties": { "marker-color":"red", "Store": "Coles", "Name": "Coles Kununurra", "Type": "Coles Supermarkets", "latitude": -15.775689, "longitude": 128.739387 }, "geometry": { "type": "Point", "coordinates": [ 128.739387, -15.775689 ] } },
{ "type": "Feature", "properties": { "marker-color":"red", "Store": "Coles", "Name": "Coles Express Kununurra Roadhouse", "Type": "Coles Express", "latitude": -15.780987, "longitude": 128.732038 }, "geometry": { "type": "Point", "coordinates": [ 128.732038, -15.780987 ] } },
{ "type": "Feature", "properties": { "marker-color":"red", "Store": "Coles", "Name": "Coles Express Halls Creek", "Type": "Coles Express", "latitude": -18.224822, "longitude": 127.666723 }, "geometry": { "type": "Point", "coordinates": [ 127.666723, -18.224822 ] } },
{ "type": "Feature", "properties": { "marker-color":"red", "Store": "Coles", "Name": "Coles Express Mount Isa Truckport", "Type": "Coles Express", "latitude": -20.693832, "longitude": 139.488494 }, "geometry": { "type": "Point", "coordinates": [ 139.488494, -20.693832 ] } },
{ "type": "Feature", "properties": { "marker-color":"red", "Store": "Coles", "Name": "Coles Express Mount Isa Grace Street", "Type": "Coles Express", "latitude": -20.723984, "longitude": 139.494535 }, "geometry": { "type": "Point", "coordinates": [ 139.494535, -20.723984 ] } },
{ "type": "Feature", "properties": { "marker-color":"red", "Store": "Coles", "Name": "Coles Mount Isa", "Type": "Coles Supermarkets", "latitude": -20.726005, "longitude": 139.494411 }, "geometry": { "type": "Point", "coordinates": [ 139.494411, -20.726005 ] } },
{ "type": "Feature", "properties": { "marker-color":"red", "Store": "Coles", "Name": "Coles Express Alice Springs Truck Stop", "Type": "Coles Express", "latitude": -23.667817, "longitude": 133.865063 }, "geometry": { "type": "Point", "coordinates": [ 133.865063, -23.667817 ] } },
{ "type": "Feature", "properties": { "marker-color":"red", "Store": "Coles", "Name": "Coles Alice Springs", "Type": "Coles Supermarkets", "latitude": -23.698378, "longitude": 133.879268 }, "geometry": { "type": "Point", "coordinates": [ 133.879268, -23.698378 ] } },
{ "type": "Feature", "properties": { "marker-color":"red", "Store": "Coles", "Name": "Coles Express Alice Springs Mt Gillen", "Type": "Coles Express", "latitude": -23.701279, "longitude": 133.871522 }, "geometry": { "type": "Point", "coordinates": [ 133.871522, -23.701279 ] } },
{ "type": "Feature", "properties": { "marker-color":"red", "Store": "Coles", "Name": "Coles Express Alice Springs Gap Rd", "Type": "Coles Express", "latitude": -23.707525, "longitude": 133.878973 }, "geometry": { "type": "Point", "coordinates": [ 133.878973, -23.707525 ] } },
{ "type": "Feature", "properties": { "marker-color":"red", "Store": "Coles", "Name": "Coles Express Fitzroy Crossing Roadhouse", "Type": "Coles Express", "latitude": -18.198191, "longitude": 125.568315 }, "geometry": { "type": "Point", "coordinates": [ 125.568315, -18.198191 ] } },
{ "type": "Feature", "properties": { "marker-color":"red", "Store": "Coles", "Name": "Coles Express Ceduna", "Type": "Coles Express", "latitude": -32.126214, "longitude": 133.677486 }, "geometry": { "type": "Point", "coordinates": [ 133.677486, -32.126214 ] } },
{ "type": "Feature", "properties": { "marker-color":"red", "Store": "Coles", "Name": "Coles Central Wynyard Express", "Type": "Coles Supermarkets", "latitude": -33.865729, "longitude": 151.206146 }, "geometry": { "type": "Point", "coordinates": [ 151.206146, -33.865729 ] } },
{ "type": "Feature", "properties": { "marker-color":"red", "Store": "Coles", "Name": "Coles World Square", "Type": "Coles Supermarkets", "latitude": -33.877321, "longitude": 151.206106 }, "geometry": { "type": "Point", "coordinates": [ 151.206106, -33.877321 ] } },
{ "type": "Feature", "properties": { "marker-color":"red", "Store": "Coles", "Name": "Coles Pyrmont", "Type": "Coles Supermarkets", "latitude": -33.869623, "longitude": 151.196403 }, "geometry": { "type": "Point", "coordinates": [ 151.196403, -33.869623 ] } },
{ "type": "Feature", "properties": { "marker-color":"red", "Store": "Coles", "Name": "Coles Express Woolloomooloo", "Type": "Coles Express", "latitude": -33.869568, "longitude": 151.221675 }, "geometry": { "type": "Point", "coordinates": [ 151.221675, -33.869568 ] } },
{ "type": "Feature", "properties": { "marker-color":"red", "Store": "Coles", "Name": "Coles Central Kings Cross", "Type": "Coles Supermarkets", "latitude": -33.875347, "longitude": 151.222213 }, "geometry": { "type": "Point", "coordinates": [ 151.222213, -33.875347 ] } },
{ "type": "Feature", "properties": { "marker-color":"red", "Store": "Coles", "Name": "Coles Express Ultimo", "Type": "Coles Express", "latitude": -33.88156, "longitude": 151.1971 }, "geometry": { "type": "Point", "coordinates": [ 151.1971, -33.88156 ] } },
{ "type": "Feature", "properties": { "marker-color":"red", "Store": "Coles", "Name": "Coles Broadway", "Type": "Coles Supermarkets", "latitude": -33.883757, "longitude": 151.194019 }, "geometry": { "type": "Point", "coordinates": [ 151.194019, -33.883757 ] } },
{ "type": "Feature", "properties": { "marker-color":"red", "Store": "Coles", "Name": "Coles Surry Hills", "Type": "Coles Supermarkets", "latitude": -33.891703, "longitude": 151.211966 }, "geometry": { "type": "Point", "coordinates": [ 151.211966, -33.891703 ] } },
{ "type": "Feature", "properties": { "marker-color":"red", "Store": "Coles", "Name": "Coles Edgecliff", "Type": "Coles Supermarkets", "latitude": -33.879329, "longitude": 151.236607 }, "geometry": { "type": "Point", "coordinates": [ 151.236607, -33.879329 ] } },
{ "type": "Feature", "properties": { "marker-color":"red", "Store": "Coles", "Name": "Coles North Sydney", "Type": "Coles Supermarkets", "latitude": -33.839255, "longitude": 151.20887 }, "geometry": { "type": "Point", "coordinates": [ 151.20887, -33.839255 ] } },
{ "type": "Feature", "properties": { "marker-color":"red", "Store": "Coles", "Name": "Coles Express Annandale", "Type": "Coles Express", "latitude": -33.880844, "longitude": 151.170504 }, "geometry": { "type": "Point", "coordinates": [ 151.170504, -33.880844 ] } },
{ "type": "Feature", "properties": { "marker-color":"red", "Store": "Coles", "Name": "Coles Express Stanmore", "Type": "Coles Express", "latitude": -33.88845, "longitude": 151.163957 }, "geometry": { "type": "Point", "coordinates": [ 151.163957, -33.88845 ] } },
{ "type": "Feature", "properties": { "marker-color":"red", "Store": "Coles", "Name": "Coles Waterloo", "Type": "Coles Supermarkets", "latitude": -33.897714, "longitude": 151.213068 }, "geometry": { "type": "Point", "coordinates": [ 151.213068, -33.897714 ] } },
{ "type": "Feature", "properties": { "marker-color":"red", "Store": "Coles", "Name": "Coles Leichhardt", "Type": "Coles Supermarkets", "latitude": -33.886035, "longitude": 151.157901 }, "geometry": { "type": "Point", "coordinates": [ 151.157901, -33.886035 ] } },
{ "type": "Feature", "properties": { "marker-color":"red", "Store": "Coles", "Name": "Coles Express Waterloo", "Type": "Coles Express", "latitude": -33.90211, "longitude": 151.21472 }, "geometry": { "type": "Point", "coordinates": [ 151.21472, -33.90211 ] } },
{ "type": "Feature", "properties": { "marker-color":"red", "Store": "Coles", "Name": "Coles East Village", "Type": "Coles Supermarkets", "latitude": -33.904155, "longitude": 151.213538 }, "geometry": { "type": "Point", "coordinates": [ 151.213538, -33.904155 ] } },
{ "type": "Feature", "properties": { "marker-color":"red", "Store": "Coles", "Name": "Coles Birkenhead Point", "Type": "Coles Supermarkets", "latitude": -33.855623, "longitude": 151.162032 }, "geometry": { "type": "Point", "coordinates": [ 151.162032, -33.855623 ] } },
{ "type": "Feature", "properties": { "marker-color":"red", "Store": "Coles", "Name": "Coles Express Alexandria", "Type": "Coles Express", "latitude": -33.915793, "longitude": 151.200027 }, "geometry": { "type": "Point", "coordinates": [ 151.200027, -33.915793 ] } },
{ "type": "Feature", "properties": { "marker-color":"red", "Store": "Coles", "Name": "Coles Express Kingsford", "Type": "Coles Express", "latitude": -33.92505, "longitude": 151.226379 }, "geometry": { "type": "Point", "coordinates": [ 151.226379, -33.92505 ] } },
{ "type": "Feature", "properties": { "marker-color":"red", "Store": "Coles", "Name": "Coles Express Randwick Alison Rd", "Type": "Coles Express", "latitude": -33.908104, "longitude": 151.234637 }, "geometry": { "type": "Point", "coordinates": [ 151.234637, -33.908104 ] } },
{ "type": "Feature", "properties": { "marker-color":"red", "Store": "Coles", "Name": "Coles Express Pagewood", "Type": "Coles Express", "latitude": -33.940738, "longitude": 151.229105 }, "geometry": { "type": "Point", "coordinates": [ 151.229105, -33.940738 ] } },
{ "type": "Feature", "properties": { "marker-color":"red", "Store": "Coles", "Name": "Coles Eastgardens", "Type": "Coles Supermarkets", "latitude": -33.944945, "longitude": 151.223597 }, "geometry": { "type": "Point", "coordinates": [ 151.223597, -33.944945 ] } },
{ "type": "Feature", "properties": { "marker-color":"red", "Store": "Coles", "Name": "Coles Randwick", "Type": "Coles Supermarkets", "latitude": -33.916585, "longitude": 151.240108 }, "geometry": { "type": "Point", "coordinates": [ 151.240108, -33.916585 ] } },
{ "type": "Feature", "properties": { "marker-color":"red", "Store": "Coles", "Name": "Coles Maroubra Junction", "Type": "Coles Supermarkets", "latitude": -33.940481, "longitude": 151.237811 }, "geometry": { "type": "Point", "coordinates": [ 151.237811, -33.940481 ] } },
{ "type": "Feature", "properties": { "marker-color":"red", "Store": "Coles", "Name": "Coles Express Maroubra", "Type": "Coles Express", "latitude": -33.949738, "longitude": 151.240937 }, "geometry": { "type": "Point", "coordinates": [ 151.240937, -33.949738 ] } },
{ "type": "Feature", "properties": { "marker-color":"red", "Store": "Coles", "Name": "Coles Express Brighton-Le-Sands", "Type": "Coles Express", "latitude": -33.957809, "longitude": 151.15748 }, "geometry": { "type": "Point", "coordinates": [ 151.15748, -33.957809 ] } },
{ "type": "Feature", "properties": { "marker-color":"red", "Store": "Coles", "Name": "Coles Brighton Le Sands", "Type": "Coles Supermarkets", "latitude": -33.959419, "longitude": 151.153634 }, "geometry": { "type": "Point", "coordinates": [ 151.153634, -33.959419 ] } },
{ "type": "Feature", "properties": { "marker-color":"red", "Store": "Coles", "Name": "Coles Express Bexley", "Type": "Coles Express", "latitude": -33.946307, "longitude": 151.128207 }, "geometry": { "type": "Point", "coordinates": [ 151.128207, -33.946307 ] } },
{ "type": "Feature", "properties": { "marker-color":"red", "Store": "Coles", "Name": "Coles Bondi Junction", "Type": "Coles Supermarkets", "latitude": -33.892883, "longitude": 151.248066 }, "geometry": { "type": "Point", "coordinates": [ 151.248066, -33.892883 ] } },
{ "type": "Feature", "properties": { "marker-color":"red", "Store": "Coles", "Name": "Coles Express Bondi Junction", "Type": "Coles Express", "latitude": -33.895571, "longitude": 151.248632 }, "geometry": { "type": "Point", "coordinates": [ 151.248632, -33.895571 ] } },
{ "type": "Feature", "properties": { "marker-color":"red", "Store": "Coles", "Name": "Coles Bondi Westfield", "Type": "Coles Supermarkets", "latitude": -33.891752, "longitude": 151.250417 }, "geometry": { "type": "Point", "coordinates": [ 151.250417, -33.891752 ] } },
{ "type": "Feature", "properties": { "marker-color":"red", "Store": "Coles", "Name": "Coles Express Randwick Frenchmans", "Type": "Coles Express", "latitude": -33.90824, "longitude": 151.24714 }, "geometry": { "type": "Point", "coordinates": [ 151.24714, -33.90824 ] } },
{ "type": "Feature", "properties": { "marker-color":"red", "Store": "Coles", "Name": "Coles Local Rose Bay", "Type": "Coles Supermarkets", "latitude": -33.865587, "longitude": 151.277881 }, "geometry": { "type": "Point", "coordinates": [ 151.277881, -33.865587 ] } },
{ "type": "Feature", "properties": { "marker-color":"red", "Store": "Coles", "Name": "Coles Express Cremorne", "Type": "Coles Express", "latitude": -33.830716, "longitude": 151.226013 }, "geometry": { "type": "Point", "coordinates": [ 151.226013, -33.830716 ] } },
{ "type": "Feature", "properties": { "marker-color":"red", "Store": "Coles", "Name": "Coles Express Neutral Bay", "Type": "Coles Express", "latitude": -33.829147, "longitude": 151.219647 }, "geometry": { "type": "Point", "coordinates": [ 151.219647, -33.829147 ] } },
{ "type": "Feature", "properties": { "marker-color":"red", "Store": "Coles", "Name": "Coles Neutral Bay", "Type": "Coles Supermarkets", "latitude": -33.829694, "longitude": 151.21821 }, "geometry": { "type": "Point", "coordinates": [ 151.21821, -33.829694 ] } },
{ "type": "Feature", "properties": { "marker-color":"red", "Store": "Coles", "Name": "Coles Express Drummoyne South", "Type": "Coles Express", "latitude": -33.85618, "longitude": 151.15939 }, "geometry": { "type": "Point", "coordinates": [ 151.15939, -33.85618 ] } },
{ "type": "Feature", "properties": { "marker-color":"red", "Store": "Coles", "Name": "Coles Express Drummoyne North", "Type": "Coles Express", "latitude": -33.855953, "longitude": 151.158593 }, "geometry": { "type": "Point", "coordinates": [ 151.158593, -33.855953 ] } },
{ "type": "Feature", "properties": { "marker-color":"red", "Store": "Coles", "Name": "Coles Five Dock", "Type": "Coles Supermarkets", "latitude": -33.86812, "longitude": 151.129394 }, "geometry": { "type": "Point", "coordinates": [ 151.129394, -33.86812 ] } },
{ "type": "Feature", "properties": { "marker-color":"red", "Store": "Coles", "Name": "Coles Ashfield", "Type": "Coles Supermarkets", "latitude": -33.889879, "longitude": 151.124763 }, "geometry": { "type": "Point", "coordinates": [ 151.124763, -33.889879 ] } },
{ "type": "Feature", "properties": { "marker-color":"red", "Store": "Coles", "Name": "Coles Earlwood", "Type": "Coles Supermarkets", "latitude": -33.926368, "longitude": 151.12388 }, "geometry": { "type": "Point", "coordinates": [ 151.12388, -33.926368 ] } },
{ "type": "Feature", "properties": { "marker-color":"red", "Store": "Coles", "Name": "Coles Express Five Dock", "Type": "Coles Express", "latitude": -33.870345, "longitude": 151.114332 }, "geometry": { "type": "Point", "coordinates": [ 151.114332, -33.870345 ] } },
{ "type": "Feature", "properties": { "marker-color":"red", "Store": "Coles", "Name": "Coles Burwood", "Type": "Coles Supermarkets", "latitude": -33.874706, "longitude": 151.105048 }, "geometry": { "type": "Point", "coordinates": [ 151.105048, -33.874706 ] } },
{ "type": "Feature", "properties": { "marker-color":"red", "Store": "Coles", "Name": "Coles Concord", "Type": "Coles Supermarkets", "latitude": -33.857033, "longitude": 151.102523 }, "geometry": { "type": "Point", "coordinates": [ 151.102523, -33.857033 ] } },
{ "type": "Feature", "properties": { "marker-color":"red", "Store": "Coles", "Name": "Coles Gladesville", "Type": "Coles Supermarkets", "latitude": -33.831151, "longitude": 151.12745 }, "geometry": { "type": "Point", "coordinates": [ 151.12745, -33.831151 ] } },
{ "type": "Feature", "properties": { "marker-color":"red", "Store": "Coles", "Name": "Coles Express Hunters Hill", "Type": "Coles Express", "latitude": -33.831557, "longitude": 151.141389 }, "geometry": { "type": "Point", "coordinates": [ 151.141389, -33.831557 ] } },
{ "type": "Feature", "properties": { "marker-color":"red", "Store": "Coles", "Name": "Coles Express Burns Bay Lane Cove", "Type": "Coles Express", "latitude": -33.817257, "longitude": 151.151816 }, "geometry": { "type": "Point", "coordinates": [ 151.151816, -33.817257 ] } },
{ "type": "Feature", "properties": { "marker-color":"red", "Store": "Coles", "Name": "Coles Crows Nest", "Type": "Coles Supermarkets", "latitude": -33.823112, "longitude": 151.201096 }, "geometry": { "type": "Point", "coordinates": [ 151.201096, -33.823112 ] } },
{ "type": "Feature", "properties": { "marker-color":"red", "Store": "Coles", "Name": "Coles Express Cammeray", "Type": "Coles Express", "latitude": -33.821432, "longitude": 151.210811 }, "geometry": { "type": "Point", "coordinates": [ 151.210811, -33.821432 ] } },
{ "type": "Feature", "properties": { "marker-color":"red", "Store": "Coles", "Name": "Coles Express Lane Cove", "Type": "Coles Express", "latitude": -33.813802, "longitude": 151.176538 }, "geometry": { "type": "Point", "coordinates": [ 151.176538, -33.813802 ] } },
{ "type": "Feature", "properties": { "marker-color":"red", "Store": "Coles", "Name": "Coles Express Willoughby", "Type": "Coles Express", "latitude": -33.805662, "longitude": 151.198913 }, "geometry": { "type": "Point", "coordinates": [ 151.198913, -33.805662 ] } },
{ "type": "Feature", "properties": { "marker-color":"red", "Store": "Coles", "Name": "Coles Chatswood", "Type": "Coles Supermarkets", "latitude": -33.797025, "longitude": 151.182745 }, "geometry": { "type": "Point", "coordinates": [ 151.182745, -33.797025 ] } },
{ "type": "Feature", "properties": { "marker-color":"red", "Store": "Coles", "Name": "Coles Chatswood Chase", "Type": "Coles Supermarkets", "latitude": -33.794506, "longitude": 151.185914 }, "geometry": { "type": "Point", "coordinates": [ 151.185914, -33.794506 ] } },
{ "type": "Feature", "properties": { "marker-color":"red", "Store": "Coles", "Name": "Coles Lane Cove Park", "Type": "Coles Supermarkets", "latitude": -33.8133, "longitude": 151.169 }, "geometry": { "type": "Point", "coordinates": [ 151.169, -33.8133 ] } },
{ "type": "Feature", "properties": { "marker-color":"red", "Store": "Coles", "Name": "Coles Express Chatswood", "Type": "Coles Express", "latitude": -33.792, "longitude": 151.180398 }, "geometry": { "type": "Point", "coordinates": [ 151.180398, -33.792 ] } },
{ "type": "Feature", "properties": { "marker-color":"red", "Store": "Coles", "Name": "Coles Lindfield", "Type": "Coles Supermarkets", "latitude": -33.774047, "longitude": 151.166569 }, "geometry": { "type": "Point", "coordinates": [ 151.166569, -33.774047 ] } },
{ "type": "Feature", "properties": { "marker-color":"red", "Store": "Coles", "Name": "Coles Forestville", "Type": "Coles Supermarkets", "latitude": -33.762026, "longitude": 151.215714 }, "geometry": { "type": "Point", "coordinates": [ 151.215714, -33.762026 ] } },
{ "type": "Feature", "properties": { "marker-color":"red", "Store": "Coles", "Name": "Coles Express Forestville", "Type": "Coles Express", "latitude": -33.76068, "longitude": 151.218168 }, "geometry": { "type": "Point", "coordinates": [ 151.218168, -33.76068 ] } },
{ "type": "Feature", "properties": { "marker-color":"red", "Store": "Coles", "Name": "Coles Express Pymble", "Type": "Coles Express", "latitude": -33.75192, "longitude": 151.144242 }, "geometry": { "type": "Point", "coordinates": [ 151.144242, -33.75192 ] } },
{ "type": "Feature", "properties": { "marker-color":"red", "Store": "Coles", "Name": "Coles Express North Ryde", "Type": "Coles Express", "latitude": -33.785039, "longitude": 151.128758 }, "geometry": { "type": "Point", "coordinates": [ 151.128758, -33.785039 ] } },
{ "type": "Feature", "properties": { "marker-color":"red", "Store": "Coles", "Name": "Coles Express North Ryde Wicks", "Type": "Coles Express", "latitude": -33.7937, "longitude": 151.12819 }, "geometry": { "type": "Point", "coordinates": [ 151.12819, -33.7937 ] } },
{ "type": "Feature", "properties": { "marker-color":"red", "Store": "Coles", "Name": "Coles Macquarie Centre", "Type": "Coles Supermarkets", "latitude": -33.775689, "longitude": 151.121193 }, "geometry": { "type": "Point", "coordinates": [ 151.121193, -33.775689 ] } },
{ "type": "Feature", "properties": { "marker-color":"red", "Store": "Coles", "Name": "Coles Express St Ives", "Type": "Coles Express", "latitude": -33.731396, "longitude": 151.157337 }, "geometry": { "type": "Point", "coordinates": [ 151.157337, -33.731396 ] } },
{ "type": "Feature", "properties": { "marker-color":"red", "Store": "Coles", "Name": "Coles St Ives", "Type": "Coles Supermarkets", "latitude": -33.730169, "longitude": 151.15777 }, "geometry": { "type": "Point", "coordinates": [ 151.15777, -33.730169 ] } },
{ "type": "Feature", "properties": { "marker-color":"red", "Store": "Coles", "Name": "Coles Turramurra", "Type": "Coles Supermarkets", "latitude": -33.732525, "longitude": 151.127233 }, "geometry": { "type": "Point", "coordinates": [ 151.127233, -33.732525 ] } },
{ "type": "Feature", "properties": { "marker-color":"red", "Store": "Coles", "Name": "Coles Express Marsfield", "Type": "Coles Express", "latitude": -33.775425, "longitude": 151.105657 }, "geometry": { "type": "Point", "coordinates": [ 151.105657, -33.775425 ] } },
{ "type": "Feature", "properties": { "marker-color":"red", "Store": "Coles", "Name": "Coles Express Wahroonga", "Type": "Coles Express", "latitude": -33.719768, "longitude": 151.11654 }, "geometry": { "type": "Point", "coordinates": [ 151.11654, -33.719768 ] } },
{ "type": "Feature", "properties": { "marker-color":"red", "Store": "Coles", "Name": "Coles Hornsby", "Type": "Coles Supermarkets", "latitude": -33.703593, "longitude": 151.10144 }, "geometry": { "type": "Point", "coordinates": [ 151.10144, -33.703593 ] } },
{ "type": "Feature", "properties": { "marker-color":"red", "Store": "Coles", "Name": "Coles Express Hornsby", "Type": "Coles Express", "latitude": -33.70759, "longitude": 151.099067 }, "geometry": { "type": "Point", "coordinates": [ 151.099067, -33.70759 ] } },
{ "type": "Feature", "properties": { "marker-color":"red", "Store": "Coles", "Name": "Coles Asquith", "Type": "Coles Supermarkets", "latitude": -33.688318, "longitude": 151.106601 }, "geometry": { "type": "Point", "coordinates": [ 151.106601, -33.688318 ] } },
{ "type": "Feature", "properties": { "marker-color":"red", "Store": "Coles", "Name": "Coles Express Thornleigh", "Type": "Coles Express", "latitude": -33.72475, "longitude": 151.085442 }, "geometry": { "type": "Point", "coordinates": [ 151.085442, -33.72475 ] } },
{ "type": "Feature", "properties": { "marker-color":"red", "Store": "Coles", "Name": "Coles Express Pennant Hills East", "Type": "Coles Express", "latitude": -33.73852, "longitude": 151.07343 }, "geometry": { "type": "Point", "coordinates": [ 151.07343, -33.73852 ] } },
{ "type": "Feature", "properties": { "marker-color":"red", "Store": "Coles", "Name": "Coles Express Dural", "Type": "Coles Express", "latitude": -33.694314, "longitude": 151.031332 }, "geometry": { "type": "Point", "coordinates": [ 151.031332, -33.694314 ] } },
{ "type": "Feature", "properties": { "marker-color":"red", "Store": "Coles", "Name": "Coles Express Berowra", "Type": "Coles Express", "latitude": -33.628198, "longitude": 151.147584 }, "geometry": { "type": "Point", "coordinates": [ 151.147584, -33.628198 ] } },
{ "type": "Feature", "properties": { "marker-color":"red", "Store": "Coles", "Name": "Coles Express Pennant Hills West", "Type": "Coles Express", "latitude": -33.739208, "longitude": 151.068638 }, "geometry": { "type": "Point", "coordinates": [ 151.068638, -33.739208 ] } },
{ "type": "Feature", "properties": { "marker-color":"red", "Store": "Coles", "Name": "Coles Berowra", "Type": "Coles Supermarkets", "latitude": -33.61281, "longitude": 151.138301 }, "geometry": { "type": "Point", "coordinates": [ 151.138301, -33.61281 ] } },
{ "type": "Feature", "properties": { "marker-color":"red", "Store": "Coles", "Name": "Coles Express Umina", "Type": "Coles Express", "latitude": -33.520989, "longitude": 151.316717 }, "geometry": { "type": "Point", "coordinates": [ 151.316717, -33.520989 ] } },
{ "type": "Feature", "properties": { "marker-color":"red", "Store": "Coles", "Name": "Coles Umina Beach", "Type": "Coles Supermarkets", "latitude": -33.521081, "longitude": 151.317271 }, "geometry": { "type": "Point", "coordinates": [ 151.317271, -33.521081 ] } },
{ "type": "Feature", "properties": { "marker-color":"red", "Store": "Coles", "Name": "Coles Express Avalon", "Type": "Coles Express", "latitude": -33.636355, "longitude": 151.330203 }, "geometry": { "type": "Point", "coordinates": [ 151.330203, -33.636355 ] } },
{ "type": "Feature", "properties": { "marker-color":"red", "Store": "Coles", "Name": "Coles Newport", "Type": "Coles Supermarkets", "latitude": -33.654037, "longitude": 151.320675 }, "geometry": { "type": "Point", "coordinates": [ 151.320675, -33.654037 ] } },
{ "type": "Feature", "properties": { "marker-color":"red", "Store": "Coles", "Name": "Coles Mona Vale", "Type": "Coles Supermarkets", "latitude": -33.675972, "longitude": 151.304908 }, "geometry": { "type": "Point", "coordinates": [ 151.304908, -33.675972 ] } },
{ "type": "Feature", "properties": { "marker-color":"red", "Store": "Coles", "Name": "Coles Express Woy Woy", "Type": "Coles Express", "latitude": -33.49384, "longitude": 151.320516 }, "geometry": { "type": "Point", "coordinates": [ 151.320516, -33.49384 ] } },
{ "type": "Feature", "properties": { "marker-color":"red", "Store": "Coles", "Name": "Coles Woy Woy", "Type": "Coles Supermarkets", "latitude": -33.488152, "longitude": 151.323324 }, "geometry": { "type": "Point", "coordinates": [ 151.323324, -33.488152 ] } },
{ "type": "Feature", "properties": { "marker-color":"red", "Store": "Coles", "Name": "Coles Express Kariong", "Type": "Coles Express", "latitude": -33.434374, "longitude": 151.29598 }, "geometry": { "type": "Point", "coordinates": [ 151.29598, -33.434374 ] } },
{ "type": "Feature", "properties": { "marker-color":"red", "Store": "Coles", "Name": "Coles Warriewood", "Type": "Coles Supermarkets", "latitude": -33.695051, "longitude": 151.295347 }, "geometry": { "type": "Point", "coordinates": [ 151.295347, -33.695051 ] } },
{ "type": "Feature", "properties": { "marker-color":"red", "Store": "Coles", "Name": "Coles Express Narrabeen", "Type": "Coles Express", "latitude": -33.700358, "longitude": 151.30007 }, "geometry": { "type": "Point", "coordinates": [ 151.30007, -33.700358 ] } },
{ "type": "Feature", "properties": { "marker-color":"red", "Store": "Coles", "Name": "Coles Warringah", "Type": "Coles Supermarkets", "latitude": -33.767479, "longitude": 151.265924 }, "geometry": { "type": "Point", "coordinates": [ 151.265924, -33.767479 ] } },
{ "type": "Feature", "properties": { "marker-color":"red", "Store": "Coles", "Name": "Coles The Grand (dee Why)", "Type": "Coles Supermarkets", "latitude": -33.754901, "longitude": 151.283901 }, "geometry": { "type": "Point", "coordinates": [ 151.283901, -33.754901 ] } },
{ "type": "Feature", "properties": { "marker-color":"red", "Store": "Coles", "Name": "Coles Express Brookvale", "Type": "Coles Express", "latitude": -33.76329, "longitude": 151.279466 }, "geometry": { "type": "Point", "coordinates": [ 151.279466, -33.76329 ] } },
{ "type": "Feature", "properties": { "marker-color":"red", "Store": "Coles", "Name": "Coles Dee Why", "Type": "Coles Supermarkets", "latitude": -33.752513, "longitude": 151.288948 }, "geometry": { "type": "Point", "coordinates": [ 151.288948, -33.752513 ] } },
{ "type": "Feature", "properties": { "marker-color":"red", "Store": "Coles", "Name": "Coles Manly Vale", "Type": "Coles Supermarkets", "latitude": -33.785295, "longitude": 151.268569 }, "geometry": { "type": "Point", "coordinates": [ 151.268569, -33.785295 ] } },
{ "type": "Feature", "properties": { "marker-color":"red", "Store": "Coles", "Name": "Coles Balgowlah", "Type": "Coles Supermarkets", "latitude": -33.793507, "longitude": 151.264444 }, "geometry": { "type": "Point", "coordinates": [ 151.264444, -33.793507 ] } },
{ "type": "Feature", "properties": { "marker-color":"red", "Store": "Coles", "Name": "Coles Manly Corso", "Type": "Coles Supermarkets", "latitude": -33.799099, "longitude": 151.284891 }, "geometry": { "type": "Point", "coordinates": [ 151.284891, -33.799099 ] } },
{ "type": "Feature", "properties": { "marker-color":"red", "Store": "Coles", "Name": "Coles Manly Peninsula", "Type": "Coles Supermarkets", "latitude": -33.798928, "longitude": 151.286745 }, "geometry": { "type": "Point", "coordinates": [ 151.286745, -33.798928 ] } },
{ "type": "Feature", "properties": { "marker-color":"red", "Store": "Coles", "Name": "Coles Express Kincumber", "Type": "Coles Express", "latitude": -33.468241, "longitude": 151.384421 }, "geometry": { "type": "Point", "coordinates": [ 151.384421, -33.468241 ] } },
{ "type": "Feature", "properties": { "marker-color":"red", "Store": "Coles", "Name": "Coles Epping", "Type": "Coles Supermarkets", "latitude": -33.772191, "longitude": 151.079613 }, "geometry": { "type": "Point", "coordinates": [ 151.079613, -33.772191 ] } },
{ "type": "Feature", "properties": { "marker-color":"red", "Store": "Coles", "Name": "Coles Express Ryde", "Type": "Coles Express", "latitude": -33.80756, "longitude": 151.109802 }, "geometry": { "type": "Point", "coordinates": [ 151.109802, -33.80756 ] } },
{ "type": "Feature", "properties": { "marker-color":"red", "Store": "Coles", "Name": "Coles West Ryde", "Type": "Coles Supermarkets", "latitude": -33.805814, "longitude": 151.087767 }, "geometry": { "type": "Point", "coordinates": [ 151.087767, -33.805814 ] } },
{ "type": "Feature", "properties": { "marker-color":"red", "Store": "Coles", "Name": "Coles Top Ryde", "Type": "Coles Supermarkets", "latitude": -33.812618, "longitude": 151.106021 }, "geometry": { "type": "Point", "coordinates": [ 151.106021, -33.812618 ] } },
{ "type": "Feature", "properties": { "marker-color":"red", "Store": "Coles", "Name": "Coles Rhodes", "Type": "Coles Supermarkets", "latitude": -33.83579, "longitude": 151.084683 }, "geometry": { "type": "Point", "coordinates": [ 151.084683, -33.83579 ] } },
{ "type": "Feature", "properties": { "marker-color":"red", "Store": "Coles", "Name": "Coles Express West Ryde", "Type": "Coles Express", "latitude": -33.807424, "longitude": 151.084599 }, "geometry": { "type": "Point", "coordinates": [ 151.084599, -33.807424 ] } },
{ "type": "Feature", "properties": { "marker-color":"red", "Store": "Coles", "Name": "Coles Wentworth Point", "Type": "Coles Supermarkets", "latitude": -33.823699, "longitude": 151.078822 }, "geometry": { "type": "Point", "coordinates": [ 151.078822, -33.823699 ] } },
{ "type": "Feature", "properties": { "marker-color":"red", "Store": "Coles", "Name": "Coles Express Dundas", "Type": "Coles Express", "latitude": -33.799541, "longitude": 151.045621 }, "geometry": { "type": "Point", "coordinates": [ 151.045621, -33.799541 ] } },
{ "type": "Feature", "properties": { "marker-color":"red", "Store": "Coles", "Name": "Coles Express Carlingford West", "Type": "Coles Express", "latitude": -33.784967, "longitude": 151.043517 }, "geometry": { "type": "Point", "coordinates": [ 151.043517, -33.784967 ] } },
{ "type": "Feature", "properties": { "marker-color":"red", "Store": "Coles", "Name": "Coles Carlingford", "Type": "Coles Supermarkets", "latitude": -33.776404, "longitude": 151.051852 }, "geometry": { "type": "Point", "coordinates": [ 151.051852, -33.776404 ] } },
{ "type": "Feature", "properties": { "marker-color":"red", "Store": "Coles", "Name": "Coles Express Parramatta", "Type": "Coles Express", "latitude": -33.808708, "longitude": 151.013158 }, "geometry": { "type": "Point", "coordinates": [ 151.013158, -33.808708 ] } },
{ "type": "Feature", "properties": { "marker-color":"red", "Store": "Coles", "Name": "Coles Parramatta North", "Type": "Coles Supermarkets", "latitude": -33.808451, "longitude": 151.005869 }, "geometry": { "type": "Point", "coordinates": [ 151.005869, -33.808451 ] } },
{ "type": "Feature", "properties": { "marker-color":"red", "Store": "Coles", "Name": "Coles Parramatta", "Type": "Coles Supermarkets", "latitude": -33.817517, "longitude": 151.002509 }, "geometry": { "type": "Point", "coordinates": [ 151.002509, -33.817517 ] } },
{ "type": "Feature", "properties": { "marker-color":"red", "Store": "Coles", "Name": "Coles North Rocks", "Type": "Coles Supermarkets", "latitude": -33.769006, "longitude": 151.026988 }, "geometry": { "type": "Point", "coordinates": [ 151.026988, -33.769006 ] } },
{ "type": "Feature", "properties": { "marker-color":"red", "Store": "Coles", "Name": "Coles Express Northmead", "Type": "Coles Express", "latitude": -33.777415, "longitude": 151.00003 }, "geometry": { "type": "Point", "coordinates": [ 151.00003, -33.777415 ] } },
{ "type": "Feature", "properties": { "marker-color":"red", "Store": "Coles", "Name": "Coles West Pennant Hills", "Type": "Coles Supermarkets", "latitude": -33.74701, "longitude": 151.050065 }, "geometry": { "type": "Point", "coordinates": [ 151.050065, -33.74701 ] } },
{ "type": "Feature", "properties": { "marker-color":"red", "Store": "Coles", "Name": "Coles Westmead", "Type": "Coles Supermarkets", "latitude": -33.803864, "longitude": 150.979359 }, "geometry": { "type": "Point", "coordinates": [ 150.979359, -33.803864 ] } },
{ "type": "Feature", "properties": { "marker-color":"red", "Store": "Coles", "Name": "Coles Express Northmead Briens", "Type": "Coles Express", "latitude": -33.796567, "longitude": 150.989235 }, "geometry": { "type": "Point", "coordinates": [ 150.989235, -33.796567 ] } },
{ "type": "Feature", "properties": { "marker-color":"red", "Store": "Coles", "Name": "Coles Merrylands", "Type": "Coles Supermarkets", "latitude": -33.834948, "longitude": 150.989409 }, "geometry": { "type": "Point", "coordinates": [ 150.989409, -33.834948 ] } },
{ "type": "Feature", "properties": { "marker-color":"red", "Store": "Coles", "Name": "Coles Express Merrylands", "Type": "Coles Express", "latitude": -33.83408, "longitude": 150.97725 }, "geometry": { "type": "Point", "coordinates": [ 150.97725, -33.83408 ] } },
{ "type": "Feature", "properties": { "marker-color":"red", "Store": "Coles", "Name": "Coles Express Guildford", "Type": "Coles Express", "latitude": -33.850721, "longitude": 150.996951 }, "geometry": { "type": "Point", "coordinates": [ 150.996951, -33.850721 ] } },
{ "type": "Feature", "properties": { "marker-color":"red", "Store": "Coles", "Name": "Coles Castle Hill", "Type": "Coles Supermarkets", "latitude": -33.730977, "longitude": 151.005008 }, "geometry": { "type": "Point", "coordinates": [ 151.005008, -33.730977 ] } },
{ "type": "Feature", "properties": { "marker-color":"red", "Store": "Coles", "Name": "Coles Baulkham Hills", "Type": "Coles Supermarkets", "latitude": -33.758987, "longitude": 150.991129 }, "geometry": { "type": "Point", "coordinates": [ 150.991129, -33.758987 ] } },
{ "type": "Feature", "properties": { "marker-color":"red", "Store": "Coles", "Name": "Coles Express Baulkham Hills", "Type": "Coles Express", "latitude": -33.760207, "longitude": 150.991679 }, "geometry": { "type": "Point", "coordinates": [ 150.991679, -33.760207 ] } },
{ "type": "Feature", "properties": { "marker-color":"red", "Store": "Coles", "Name": "Coles Express Lidcombe", "Type": "Coles Express", "latitude": -33.853848, "longitude": 151.059097 }, "geometry": { "type": "Point", "coordinates": [ 151.059097, -33.853848 ] } },
{ "type": "Feature", "properties": { "marker-color":"red", "Store": "Coles", "Name": "Coles Express Strathfield", "Type": "Coles Express", "latitude": -33.870927, "longitude": 151.092844 }, "geometry": { "type": "Point", "coordinates": [ 151.092844, -33.870927 ] } },
{ "type": "Feature", "properties": { "marker-color":"red", "Store": "Coles", "Name": "Coles Express Enfield", "Type": "Coles Express", "latitude": -33.886788, "longitude": 151.070686 }, "geometry": { "type": "Point", "coordinates": [ 151.070686, -33.886788 ] } },
{ "type": "Feature", "properties": { "marker-color":"red", "Store": "Coles", "Name": "Coles Express Roberts Road West", "Type": "Coles Express", "latitude": -33.892293, "longitude": 151.066447 }, "geometry": { "type": "Point", "coordinates": [ 151.066447, -33.892293 ] } },
{ "type": "Feature", "properties": { "marker-color":"red", "Store": "Coles", "Name": "Coles Express Roberts Road East", "Type": "Coles Express", "latitude": -33.89453, "longitude": 151.06666 }, "geometry": { "type": "Point", "coordinates": [ 151.06666, -33.89453 ] } },
{ "type": "Feature", "properties": { "marker-color":"red", "Store": "Coles", "Name": "Coles Clemton Park", "Type": "Coles Supermarkets", "latitude": -33.92333, "longitude": 151.101738 }, "geometry": { "type": "Point", "coordinates": [ 151.101738, -33.92333 ] } },
{ "type": "Feature", "properties": { "marker-color":"red", "Store": "Coles", "Name": "Coles Greenacre", "Type": "Coles Supermarkets", "latitude": -33.906258, "longitude": 151.056122 }, "geometry": { "type": "Point", "coordinates": [ 151.056122, -33.906258 ] } },
{ "type": "Feature", "properties": { "marker-color":"red", "Store": "Coles", "Name": "Coles Express Yagoona", "Type": "Coles Express", "latitude": -33.89878, "longitude": 151.037525 }, "geometry": { "type": "Point", "coordinates": [ 151.037525, -33.89878 ] } },
{ "type": "Feature", "properties": { "marker-color":"red", "Store": "Coles", "Name": "Coles Express Bass Hill", "Type": "Coles Express", "latitude": -33.899571, "longitude": 150.997612 }, "geometry": { "type": "Point", "coordinates": [ 150.997612, -33.899571 ] } },
{ "type": "Feature", "properties": { "marker-color":"red", "Store": "Coles", "Name": "Coles Express Lansvale", "Type": "Coles Express", "latitude": -33.892443, "longitude": 150.960577 }, "geometry": { "type": "Point", "coordinates": [ 150.960577, -33.892443 ] } },
{ "type": "Feature", "properties": { "marker-color":"red", "Store": "Coles", "Name": "Coles Express Greystanes", "Type": "Coles Express", "latitude": -33.829407, "longitude": 150.952973 }, "geometry": { "type": "Point", "coordinates": [ 150.952973, -33.829407 ] } },
{ "type": "Feature", "properties": { "marker-color":"red", "Store": "Coles", "Name": "Coles Smithfield", "Type": "Coles Supermarkets", "latitude": -33.853317, "longitude": 150.940453 }, "geometry": { "type": "Point", "coordinates": [ 150.940453, -33.853317 ] } },
{ "type": "Feature", "properties": { "marker-color":"red", "Store": "Coles", "Name": "Coles Express Smithfield (nsw)", "Type": "Coles Express", "latitude": -33.8537338, "longitude": 150.9399456 }, "geometry": { "type": "Point", "coordinates": [ 150.939945599999987, -33.8537338 ] } },
{ "type": "Feature", "properties": { "marker-color":"red", "Store": "Coles", "Name": "Coles Winston Hills", "Type": "Coles Supermarkets", "latitude": -33.773166, "longitude": 150.969828 }, "geometry": { "type": "Point", "coordinates": [ 150.969828, -33.773166 ] } },
{ "type": "Feature", "properties": { "marker-color":"red", "Store": "Coles", "Name": "Coles Blacktown", "Type": "Coles Supermarkets", "latitude": -33.770246, "longitude": 150.904651 }, "geometry": { "type": "Point", "coordinates": [ 150.904651, -33.770246 ] } },
{ "type": "Feature", "properties": { "marker-color":"red", "Store": "Coles", "Name": "Coles Express Blacktown", "Type": "Coles Express", "latitude": -33.753855, "longitude": 150.914651 }, "geometry": { "type": "Point", "coordinates": [ 150.914651, -33.753855 ] } },
{ "type": "Feature", "properties": { "marker-color":"red", "Store": "Coles", "Name": "Coles Kings Langley", "Type": "Coles Supermarkets", "latitude": -33.742933, "longitude": 150.923126 }, "geometry": { "type": "Point", "coordinates": [ 150.923126, -33.742933 ] } },
{ "type": "Feature", "properties": { "marker-color":"red", "Store": "Coles", "Name": "Coles Norwest", "Type": "Coles Supermarkets", "latitude": -33.733016, "longitude": 150.962023 }, "geometry": { "type": "Point", "coordinates": [ 150.962023, -33.733016 ] } },
{ "type": "Feature", "properties": { "marker-color":"red", "Store": "Coles", "Name": "Coles Express Norwest Business Park", "Type": "Coles Express", "latitude": -33.733555, "longitude": 150.963518 }, "geometry": { "type": "Point", "coordinates": [ 150.963518, -33.733555 ] } },
{ "type": "Feature", "properties": { "marker-color":"red", "Store": "Coles", "Name": "Coles Express Parklea", "Type": "Coles Express", "latitude": -33.729311, "longitude": 150.921783 }, "geometry": { "type": "Point", "coordinates": [ 150.921783, -33.729311 ] } },
{ "type": "Feature", "properties": { "marker-color":"red", "Store": "Coles", "Name": "Coles Express Doonside", "Type": "Coles Express", "latitude": -33.77326, "longitude": 150.87673 }, "geometry": { "type": "Point", "coordinates": [ 150.87673, -33.77326 ] } },
{ "type": "Feature", "properties": { "marker-color":"red", "Store": "Coles", "Name": "Coles Express Eastern Creek", "Type": "Coles Express", "latitude": -33.792175, "longitude": 150.870217 }, "geometry": { "type": "Point", "coordinates": [ 150.870217, -33.792175 ] } },
{ "type": "Feature", "properties": { "marker-color":"red", "Store": "Coles", "Name": "Coles Doonside", "Type": "Coles Supermarkets", "latitude": -33.74871, "longitude": 150.878837 }, "geometry": { "type": "Point", "coordinates": [ 150.878837, -33.74871 ] } },
{ "type": "Feature", "properties": { "marker-color":"red", "Store": "Coles", "Name": "Coles Express Wetherill Park Elizabeth", "Type": "Coles Express", "latitude": -33.845582, "longitude": 150.899064 }, "geometry": { "type": "Point", "coordinates": [ 150.899064, -33.845582 ] } },
{ "type": "Feature", "properties": { "marker-color":"red", "Store": "Coles", "Name": "Coles Kellyville", "Type": "Coles Supermarkets", "latitude": -33.713408, "longitude": 150.971213 }, "geometry": { "type": "Point", "coordinates": [ 150.971213, -33.713408 ] } },
{ "type": "Feature", "properties": { "marker-color":"red", "Store": "Coles", "Name": "Coles Rouse Hill", "Type": "Coles Supermarkets", "latitude": -33.690952, "longitude": 150.925296 }, "geometry": { "type": "Point", "coordinates": [ 150.925296, -33.690952 ] } },
{ "type": "Feature", "properties": { "marker-color":"red", "Store": "Coles", "Name": "Coles Express Rouse Hill", "Type": "Coles Express", "latitude": -33.682809, "longitude": 150.91629 }, "geometry": { "type": "Point", "coordinates": [ 150.91629, -33.682809 ] } },
{ "type": "Feature", "properties": { "marker-color":"red", "Store": "Coles", "Name": "Coles Stanhope Gardens", "Type": "Coles Supermarkets", "latitude": -33.718326, "longitude": 150.919592 }, "geometry": { "type": "Point", "coordinates": [ 150.919592, -33.718326 ] } },
{ "type": "Feature", "properties": { "marker-color":"red", "Store": "Coles", "Name": "Coles Windsor", "Type": "Coles Supermarkets", "latitude": -33.60734, "longitude": 150.818731 }, "geometry": { "type": "Point", "coordinates": [ 150.818731, -33.60734 ] } },
{ "type": "Feature", "properties": { "marker-color":"red", "Store": "Coles", "Name": "Coles Express Fairfield (nsw)", "Type": "Coles Express", "latitude": -33.86395, "longitude": 150.95417 }, "geometry": { "type": "Point", "coordinates": [ 150.95417, -33.86395 ] } },
{ "type": "Feature", "properties": { "marker-color":"red", "Store": "Coles", "Name": "Coles Fairfield", "Type": "Coles Supermarkets", "latitude": -33.86752, "longitude": 150.95152 }, "geometry": { "type": "Point", "coordinates": [ 150.95152, -33.86752 ] } },
{ "type": "Feature", "properties": { "marker-color":"red", "Store": "Coles", "Name": "Coles Express Lansvale West", "Type": "Coles Express", "latitude": -33.89803, "longitude": 150.9527 }, "geometry": { "type": "Point", "coordinates": [ 150.9527, -33.89803 ] } },
{ "type": "Feature", "properties": { "marker-color":"red", "Store": "Coles", "Name": "Coles Chipping Norton", "Type": "Coles Supermarkets", "latitude": -33.914646, "longitude": 150.962082 }, "geometry": { "type": "Point", "coordinates": [ 150.962082, -33.914646 ] } },
{ "type": "Feature", "properties": { "marker-color":"red", "Store": "Coles", "Name": "Coles Express Cabramatta West", "Type": "Coles Express", "latitude": -33.893493, "longitude": 150.921968 }, "geometry": { "type": "Point", "coordinates": [ 150.921968, -33.893493 ] } },
{ "type": "Feature", "properties": { "marker-color":"red", "Store": "Coles", "Name": "Coles Express Wetherill Park Horsley Drive", "Type": "Coles Express", "latitude": -33.84976, "longitude": 150.90113 }, "geometry": { "type": "Point", "coordinates": [ 150.90113, -33.84976 ] } },
{ "type": "Feature", "properties": { "marker-color":"red", "Store": "Coles", "Name": "Coles Wetherill Park", "Type": "Coles Supermarkets", "latitude": -33.856838, "longitude": 150.898204 }, "geometry": { "type": "Point", "coordinates": [ 150.898204, -33.856838 ] } },
{ "type": "Feature", "properties": { "marker-color":"red", "Store": "Coles", "Name": "Coles Fairfield West", "Type": "Coles Supermarkets", "latitude": -33.868684, "longitude": 150.923519 }, "geometry": { "type": "Point", "coordinates": [ 150.923519, -33.868684 ] } },
{ "type": "Feature", "properties": { "marker-color":"red", "Store": "Coles", "Name": "Coles Edensor Park", "Type": "Coles Supermarkets", "latitude": -33.876514, "longitude": 150.876551 }, "geometry": { "type": "Point", "coordinates": [ 150.876551, -33.876514 ] } },
{ "type": "Feature", "properties": { "marker-color":"red", "Store": "Coles", "Name": "Coles Liverpool Westfield", "Type": "Coles Supermarkets", "latitude": -33.919181, "longitude": 150.923737 }, "geometry": { "type": "Point", "coordinates": [ 150.923737, -33.919181 ] } },
{ "type": "Feature", "properties": { "marker-color":"red", "Store": "Coles", "Name": "Coles Express Casula", "Type": "Coles Express", "latitude": -33.955743, "longitude": 150.892854 }, "geometry": { "type": "Point", "coordinates": [ 150.892854, -33.955743 ] } },
{ "type": "Feature", "properties": { "marker-color":"red", "Store": "Coles", "Name": "Coles Casula", "Type": "Coles Supermarkets", "latitude": -33.947753, "longitude": 150.899197 }, "geometry": { "type": "Point", "coordinates": [ 150.899197, -33.947753 ] } },
{ "type": "Feature", "properties": { "marker-color":"red", "Store": "Coles", "Name": "Coles Ingleburn", "Type": "Coles Supermarkets", "latitude": -33.99753, "longitude": 150.865501 }, "geometry": { "type": "Point", "coordinates": [ 150.865501, -33.99753 ] } },
{ "type": "Feature", "properties": { "marker-color":"red", "Store": "Coles", "Name": "Coles Express Edmondson Park", "Type": "Coles Express", "latitude": -33.954, "longitude": 150.85 }, "geometry": { "type": "Point", "coordinates": [ 150.85, -33.954 ] } },
{ "type": "Feature", "properties": { "marker-color":"red", "Store": "Coles", "Name": "Coles Wattle Grove", "Type": "Coles Supermarkets", "latitude": -33.955138, "longitude": 150.943204 }, "geometry": { "type": "Point", "coordinates": [ 150.943204, -33.955138 ] } },
{ "type": "Feature", "properties": { "marker-color":"red", "Store": "Coles", "Name": "Coles Express Liverpool", "Type": "Coles Express", "latitude": -33.931562, "longitude": 150.91762 }, "geometry": { "type": "Point", "coordinates": [ 150.91762, -33.931562 ] } },
{ "type": "Feature", "properties": { "marker-color":"red", "Store": "Coles", "Name": "Coles Express Wattle Grove", "Type": "Coles Express", "latitude": -33.94939, "longitude": 150.95054 }, "geometry": { "type": "Point", "coordinates": [ 150.95054, -33.94939 ] } },
{ "type": "Feature", "properties": { "marker-color":"red", "Store": "Coles", "Name": "Coles Express Hoxton Park", "Type": "Coles Express", "latitude": -33.925006, "longitude": 150.848573 }, "geometry": { "type": "Point", "coordinates": [ 150.848573, -33.925006 ] } },
{ "type": "Feature", "properties": { "marker-color":"red", "Store": "Coles", "Name": "Coles Express Leppington", "Type": "Coles Express", "latitude": -33.96621, "longitude": 150.81608 }, "geometry": { "type": "Point", "coordinates": [ 150.81608, -33.96621 ] } },
{ "type": "Feature", "properties": { "marker-color":"red", "Store": "Coles", "Name": "Coles Green Valley", "Type": "Coles Supermarkets", "latitude": -33.9076, "longitude": 150.867228 }, "geometry": { "type": "Point", "coordinates": [ 150.867228, -33.9076 ] } },
{ "type": "Feature", "properties": { "marker-color":"red", "Store": "Coles", "Name": "Coles Express Green Valley", "Type": "Coles Express", "latitude": -33.899607, "longitude": 150.857089 }, "geometry": { "type": "Point", "coordinates": [ 150.857089, -33.899607 ] } },
{ "type": "Feature", "properties": { "marker-color":"red", "Store": "Coles", "Name": "Coles Revesby", "Type": "Coles Supermarkets", "latitude": -33.953336, "longitude": 151.013292 }, "geometry": { "type": "Point", "coordinates": [ 151.013292, -33.953336 ] } },
{ "type": "Feature", "properties": { "marker-color":"red", "Store": "Coles", "Name": "Coles Express Padstow", "Type": "Coles Express", "latitude": -33.94806, "longitude": 151.03716 }, "geometry": { "type": "Point", "coordinates": [ 151.03716, -33.94806 ] } },
{ "type": "Feature", "properties": { "marker-color":"red", "Store": "Coles", "Name": "Coles Illawong", "Type": "Coles Supermarkets", "latitude": -33.997351, "longitude": 151.041945 }, "geometry": { "type": "Point", "coordinates": [ 151.041945, -33.997351 ] } },
{ "type": "Feature", "properties": { "marker-color":"red", "Store": "Coles", "Name": "Coles Express Minto", "Type": "Coles Express", "latitude": -34.02353, "longitude": 150.85043 }, "geometry": { "type": "Point", "coordinates": [ 150.85043, -34.02353 ] } },
{ "type": "Feature", "properties": { "marker-color":"red", "Store": "Coles", "Name": "Coles Express Campbelltown", "Type": "Coles Express", "latitude": -34.060546, "longitude": 150.819393 }, "geometry": { "type": "Point", "coordinates": [ 150.819393, -34.060546 ] } },
{ "type": "Feature", "properties": { "marker-color":"red", "Store": "Coles", "Name": "Coles Engadine", "Type": "Coles Supermarkets", "latitude": -34.064788, "longitude": 151.010483 }, "geometry": { "type": "Point", "coordinates": [ 151.010483, -34.064788 ] } },
{ "type": "Feature", "properties": { "marker-color":"red", "Store": "Coles", "Name": "Coles Express Heathcote", "Type": "Coles Express", "latitude": -34.08779, "longitude": 151.00736 }, "geometry": { "type": "Point", "coordinates": [ 151.00736, -34.08779 ] } },
{ "type": "Feature", "properties": { "marker-color":"red", "Store": "Coles", "Name": "Coles Campbelltown", "Type": "Coles Supermarkets", "latitude": -34.069347, "longitude": 150.809995 }, "geometry": { "type": "Point", "coordinates": [ 150.809995, -34.069347 ] } },
{ "type": "Feature", "properties": { "marker-color":"red", "Store": "Coles", "Name": "Coles Macarthur Square", "Type": "Coles Supermarkets", "latitude": -34.074622, "longitude": 150.798295 }, "geometry": { "type": "Point", "coordinates": [ 150.798295, -34.074622 ] } },
{ "type": "Feature", "properties": { "marker-color":"red", "Store": "Coles", "Name": "Coles Express St Helens Park", "Type": "Coles Express", "latitude": -34.111953, "longitude": 150.798563 }, "geometry": { "type": "Point", "coordinates": [ 150.798563, -34.111953 ] } },
{ "type": "Feature", "properties": { "marker-color":"red", "Store": "Coles", "Name": "Coles Sutherland", "Type": "Coles Supermarkets", "latitude": -34.03362, "longitude": 151.05636 }, "geometry": { "type": "Point", "coordinates": [ 151.05636, -34.03362 ] } },
{ "type": "Feature", "properties": { "marker-color":"red", "Store": "Coles", "Name": "Coles Willowdale", "Type": "Coles Supermarkets", "latitude": -33.9763, "longitude": 150.812003 }, "geometry": { "type": "Point", "coordinates": [ 150.812003, -33.9763 ] } },
{ "type": "Feature", "properties": { "marker-color":"red", "Store": "Coles", "Name": "Coles Express St Clair", "Type": "Coles Express", "latitude": -33.788376, "longitude": 150.771796 }, "geometry": { "type": "Point", "coordinates": [ 150.771796, -33.788376 ] } },
{ "type": "Feature", "properties": { "marker-color":"red", "Store": "Coles", "Name": "Coles Roselands", "Type": "Coles Supermarkets", "latitude": -33.935326, "longitude": 151.0678 }, "geometry": { "type": "Point", "coordinates": [ 151.0678, -33.935326 ] } },
{ "type": "Feature", "properties": { "marker-color":"red", "Store": "Coles", "Name": "Coles Express Kingsgrove", "Type": "Coles Express", "latitude": -33.93304, "longitude": 151.09935 }, "geometry": { "type": "Point", "coordinates": [ 151.09935, -33.93304 ] } },
{ "type": "Feature", "properties": { "marker-color":"red", "Store": "Coles", "Name": "Coles Express Carlton (nsw)", "Type": "Coles Express", "latitude": -33.974878, "longitude": 151.127291 }, "geometry": { "type": "Point", "coordinates": [ 151.127291, -33.974878 ] } },
{ "type": "Feature", "properties": { "marker-color":"red", "Store": "Coles", "Name": "Coles Hurstville", "Type": "Coles Supermarkets", "latitude": -33.965993, "longitude": 151.10539 }, "geometry": { "type": "Point", "coordinates": [ 151.10539, -33.965993 ] } },
{ "type": "Feature", "properties": { "marker-color":"red", "Store": "Coles", "Name": "Coles Hurstville Station", "Type": "Coles Supermarkets", "latitude": -33.967446, "longitude": 151.10208 }, "geometry": { "type": "Point", "coordinates": [ 151.10208, -33.967446 ] } },
{ "type": "Feature", "properties": { "marker-color":"red", "Store": "Coles", "Name": "Coles Express Hurstville", "Type": "Coles Express", "latitude": -33.96505, "longitude": 151.09883 }, "geometry": { "type": "Point", "coordinates": [ 151.09883, -33.96505 ] } },
{ "type": "Feature", "properties": { "marker-color":"red", "Store": "Coles", "Name": "Coles Express South Hurstville", "Type": "Coles Express", "latitude": -33.978806, "longitude": 151.10575 }, "geometry": { "type": "Point", "coordinates": [ 151.10575, -33.978806 ] } },
{ "type": "Feature", "properties": { "marker-color":"red", "Store": "Coles", "Name": "Coles Oatley West", "Type": "Coles Supermarkets", "latitude": -33.980667, "longitude": 151.075807 }, "geometry": { "type": "Point", "coordinates": [ 151.075807, -33.980667 ] } },
{ "type": "Feature", "properties": { "marker-color":"red", "Store": "Coles", "Name": "Coles Express Ramsgate", "Type": "Coles Express", "latitude": -33.9858, "longitude": 151.1473 }, "geometry": { "type": "Point", "coordinates": [ 151.1473, -33.9858 ] } },
{ "type": "Feature", "properties": { "marker-color":"red", "Store": "Coles", "Name": "Coles Ramsgate", "Type": "Coles Supermarkets", "latitude": -33.986297, "longitude": 151.146298 }, "geometry": { "type": "Point", "coordinates": [ 151.146298, -33.986297 ] } },
{ "type": "Feature", "properties": { "marker-color":"red", "Store": "Coles", "Name": "Coles Express Captain Cook Bridge", "Type": "Coles Express", "latitude": -34.020299, "longitude": 151.121938 }, "geometry": { "type": "Point", "coordinates": [ 151.121938, -34.020299 ] } },
{ "type": "Feature", "properties": { "marker-color":"red", "Store": "Coles", "Name": "Coles Sylvania", "Type": "Coles Supermarkets", "latitude": -34.010652, "longitude": 151.103184 }, "geometry": { "type": "Point", "coordinates": [ 151.103184, -34.010652 ] } },
{ "type": "Feature", "properties": { "marker-color":"red", "Store": "Coles", "Name": "Coles Express Taren Point", "Type": "Coles Express", "latitude": -34.026208, "longitude": 151.120138 }, "geometry": { "type": "Point", "coordinates": [ 151.120138, -34.026208 ] } },
{ "type": "Feature", "properties": { "marker-color":"red", "Store": "Coles", "Name": "Coles Express Oyster Bay", "Type": "Coles Express", "latitude": -34.00934, "longitude": 151.07548 }, "geometry": { "type": "Point", "coordinates": [ 151.07548, -34.00934 ] } },
{ "type": "Feature", "properties": { "marker-color":"red", "Store": "Coles", "Name": "Coles Kareela", "Type": "Coles Supermarkets", "latitude": -34.01805, "longitude": 151.080207 }, "geometry": { "type": "Point", "coordinates": [ 151.080207, -34.01805 ] } },
{ "type": "Feature", "properties": { "marker-color":"red", "Store": "Coles", "Name": "Coles Miranda", "Type": "Coles Supermarkets", "latitude": -34.032259, "longitude": 151.09966 }, "geometry": { "type": "Point", "coordinates": [ 151.09966, -34.032259 ] } },
{ "type": "Feature", "properties": { "marker-color":"red", "Store": "Coles", "Name": "Coles Express Kirrawee", "Type": "Coles Express", "latitude": -34.02693, "longitude": 151.08458 }, "geometry": { "type": "Point", "coordinates": [ 151.08458, -34.02693 ] } },
{ "type": "Feature", "properties": { "marker-color":"red", "Store": "Coles", "Name": "Coles Miranda", "Type": "Coles Supermarkets", "latitude": -34.034639, "longitude": 151.100196 }, "geometry": { "type": "Point", "coordinates": [ 151.100196, -34.034639 ] } },
{ "type": "Feature", "properties": { "marker-color":"red", "Store": "Coles", "Name": "Coles Kirrawee", "Type": "Coles Supermarkets", "latitude": -34.033525, "longitude": 151.074406 }, "geometry": { "type": "Point", "coordinates": [ 151.074406, -34.033525 ] } },
{ "type": "Feature", "properties": { "marker-color":"red", "Store": "Coles", "Name": "Coles Caringbah", "Type": "Coles Supermarkets", "latitude": -34.042082, "longitude": 151.120072 }, "geometry": { "type": "Point", "coordinates": [ 151.120072, -34.042082 ] } },
{ "type": "Feature", "properties": { "marker-color":"red", "Store": "Coles", "Name": "Coles Express Ourimbah", "Type": "Coles Express", "latitude": -33.347062, "longitude": 151.371028 }, "geometry": { "type": "Point", "coordinates": [ 151.371028, -33.347062 ] } },
{ "type": "Feature", "properties": { "marker-color":"red", "Store": "Coles", "Name": "Coles West Gosford", "Type": "Coles Supermarkets", "latitude": -33.428364, "longitude": 151.315716 }, "geometry": { "type": "Point", "coordinates": [ 151.315716, -33.428364 ] } },
{ "type": "Feature", "properties": { "marker-color":"red", "Store": "Coles", "Name": "Coles Lisarow", "Type": "Coles Supermarkets", "latitude": -33.385491, "longitude": 151.367588 }, "geometry": { "type": "Point", "coordinates": [ 151.367588, -33.385491 ] } },
{ "type": "Feature", "properties": { "marker-color":"red", "Store": "Coles", "Name": "Coles Wyoming", "Type": "Coles Supermarkets", "latitude": -33.405108, "longitude": 151.351294 }, "geometry": { "type": "Point", "coordinates": [ 151.351294, -33.405108 ] } },
{ "type": "Feature", "properties": { "marker-color":"red", "Store": "Coles", "Name": "Coles Tuggerah", "Type": "Coles Supermarkets", "latitude": -33.308457, "longitude": 151.412033 }, "geometry": { "type": "Point", "coordinates": [ 151.412033, -33.308457 ] } },
{ "type": "Feature", "properties": { "marker-color":"red", "Store": "Coles", "Name": "Coles Wyong", "Type": "Coles Supermarkets", "latitude": -33.283465, "longitude": 151.42315 }, "geometry": { "type": "Point", "coordinates": [ 151.42315, -33.283465 ] } },
{ "type": "Feature", "properties": { "marker-color":"red", "Store": "Coles", "Name": "Coles Chittaway Point", "Type": "Coles Supermarkets", "latitude": -33.326975, "longitude": 151.42928 }, "geometry": { "type": "Point", "coordinates": [ 151.42928, -33.326975 ] } },
{ "type": "Feature", "properties": { "marker-color":"red", "Store": "Coles", "Name": "Coles Express Erina", "Type": "Coles Express", "latitude": -33.435463, "longitude": 151.385393 }, "geometry": { "type": "Point", "coordinates": [ 151.385393, -33.435463 ] } },
{ "type": "Feature", "properties": { "marker-color":"red", "Store": "Coles", "Name": "Coles Green Point", "Type": "Coles Supermarkets", "latitude": -33.446702, "longitude": 151.3727 }, "geometry": { "type": "Point", "coordinates": [ 151.3727, -33.446702 ] } },
{ "type": "Feature", "properties": { "marker-color":"red", "Store": "Coles", "Name": "Coles Kincumber", "Type": "Coles Supermarkets", "latitude": -33.467293, "longitude": 151.382996 }, "geometry": { "type": "Point", "coordinates": [ 151.382996, -33.467293 ] } },
{ "type": "Feature", "properties": { "marker-color":"red", "Store": "Coles", "Name": "Coles Erina", "Type": "Coles Supermarkets", "latitude": -33.437323, "longitude": 151.393077 }, "geometry": { "type": "Point", "coordinates": [ 151.393077, -33.437323 ] } },
{ "type": "Feature", "properties": { "marker-color":"red", "Store": "Coles", "Name": "Coles Express Terrigal", "Type": "Coles Express", "latitude": -33.440147, "longitude": 151.433593 }, "geometry": { "type": "Point", "coordinates": [ 151.433593, -33.440147 ] } },
{ "type": "Feature", "properties": { "marker-color":"red", "Store": "Coles", "Name": "Coles Killarney Vale", "Type": "Coles Supermarkets", "latitude": -33.365677, "longitude": 151.461167 }, "geometry": { "type": "Point", "coordinates": [ 151.461167, -33.365677 ] } },
{ "type": "Feature", "properties": { "marker-color":"red", "Store": "Coles", "Name": "Coles Express Killarney Vale", "Type": "Coles Express", "latitude": -33.367217, "longitude": 151.465117 }, "geometry": { "type": "Point", "coordinates": [ 151.465117, -33.367217 ] } },
{ "type": "Feature", "properties": { "marker-color":"red", "Store": "Coles", "Name": "Coles Wadalba", "Type": "Coles Supermarkets", "latitude": -33.264197, "longitude": 151.464648 }, "geometry": { "type": "Point", "coordinates": [ 151.464648, -33.264197 ] } },
{ "type": "Feature", "properties": { "marker-color":"red", "Store": "Coles", "Name": "Coles San Remo", "Type": "Coles Supermarkets", "latitude": -33.215429, "longitude": 151.510841 }, "geometry": { "type": "Point", "coordinates": [ 151.510841, -33.215429 ] } },
{ "type": "Feature", "properties": { "marker-color":"red", "Store": "Coles", "Name": "Coles Lake Haven", "Type": "Coles Supermarkets", "latitude": -33.24147, "longitude": 151.503917 }, "geometry": { "type": "Point", "coordinates": [ 151.503917, -33.24147 ] } },
{ "type": "Feature", "properties": { "marker-color":"red", "Store": "Coles", "Name": "Coles Morisset", "Type": "Coles Supermarkets", "latitude": -33.106437, "longitude": 151.487967 }, "geometry": { "type": "Point", "coordinates": [ 151.487967, -33.106437 ] } },
{ "type": "Feature", "properties": { "marker-color":"red", "Store": "Coles", "Name": "Coles Express Gorokan", "Type": "Coles Express", "latitude": -33.25642, "longitude": 151.50793 }, "geometry": { "type": "Point", "coordinates": [ 151.50793, -33.25642 ] } },
{ "type": "Feature", "properties": { "marker-color":"red", "Store": "Coles", "Name": "Coles Express Lake Munmorah", "Type": "Coles Express", "latitude": -33.1862, "longitude": 151.548383 }, "geometry": { "type": "Point", "coordinates": [ 151.548383, -33.1862 ] } },
{ "type": "Feature", "properties": { "marker-color":"red", "Store": "Coles", "Name": "Coles Bonnells Bay", "Type": "Coles Supermarkets", "latitude": -33.11083, "longitude": 151.531955 }, "geometry": { "type": "Point", "coordinates": [ 151.531955, -33.11083 ] } },
{ "type": "Feature", "properties": { "marker-color":"red", "Store": "Coles", "Name": "Coles Budgewoi", "Type": "Coles Supermarkets", "latitude": -33.233581, "longitude": 151.554132 }, "geometry": { "type": "Point", "coordinates": [ 151.554132, -33.233581 ] } },
{ "type": "Feature", "properties": { "marker-color":"red", "Store": "Coles", "Name": "Coles Bateau Bay", "Type": "Coles Supermarkets", "latitude": -33.374859, "longitude": 151.472457 }, "geometry": { "type": "Point", "coordinates": [ 151.472457, -33.374859 ] } },
{ "type": "Feature", "properties": { "marker-color":"red", "Store": "Coles", "Name": "Coles The Entrance", "Type": "Coles Supermarkets", "latitude": -33.345825, "longitude": 151.496031 }, "geometry": { "type": "Point", "coordinates": [ 151.496031, -33.345825 ] } },
{ "type": "Feature", "properties": { "marker-color":"red", "Store": "Coles", "Name": "Coles Toukley", "Type": "Coles Supermarkets", "latitude": -33.264802, "longitude": 151.539663 }, "geometry": { "type": "Point", "coordinates": [ 151.539663, -33.264802 ] } },
{ "type": "Feature", "properties": { "marker-color":"red", "Store": "Coles", "Name": "Coles Swansea", "Type": "Coles Supermarkets", "latitude": -33.091623, "longitude": 151.636769 }, "geometry": { "type": "Point", "coordinates": [ 151.636769, -33.091623 ] } },
{ "type": "Feature", "properties": { "marker-color":"red", "Store": "Coles", "Name": "Coles Express Toronto", "Type": "Coles Express", "latitude": -33.0128965, "longitude": 151.5928752 }, "geometry": { "type": "Point", "coordinates": [ 151.5928752, -33.0128965 ] } },
{ "type": "Feature", "properties": { "marker-color":"red", "Store": "Coles", "Name": "Coles Toronto", "Type": "Coles Supermarkets", "latitude": -33.013037, "longitude": 151.595078 }, "geometry": { "type": "Point", "coordinates": [ 151.595078, -33.013037 ] } },
{ "type": "Feature", "properties": { "marker-color":"red", "Store": "Coles", "Name": "Coles Express Belmont South (nsw)", "Type": "Coles Express", "latitude": -33.050963, "longitude": 151.655239 }, "geometry": { "type": "Point", "coordinates": [ 151.655239, -33.050963 ] } },
{ "type": "Feature", "properties": { "marker-color":"red", "Store": "Coles", "Name": "Coles Belmont", "Type": "Coles Supermarkets", "latitude": -33.034734, "longitude": 151.65891 }, "geometry": { "type": "Point", "coordinates": [ 151.65891, -33.034734 ] } },
{ "type": "Feature", "properties": { "marker-color":"red", "Store": "Coles", "Name": "Coles Express Belmont Maude (nsw)", "Type": "Coles Express", "latitude": -33.0331052, "longitude": 151.6605272 }, "geometry": { "type": "Point", "coordinates": [ 151.6605272, -33.0331052 ] } },
{ "type": "Feature", "properties": { "marker-color":"red", "Store": "Coles", "Name": "Coles Jewellstown", "Type": "Coles Supermarkets", "latitude": -33.012915, "longitude": 151.684313 }, "geometry": { "type": "Point", "coordinates": [ 151.684313, -33.012915 ] } },
{ "type": "Feature", "properties": { "marker-color":"red", "Store": "Coles", "Name": "Coles Warners Bay", "Type": "Coles Supermarkets", "latitude": -32.973911, "longitude": 151.645682 }, "geometry": { "type": "Point", "coordinates": [ 151.645682, -32.973911 ] } },
{ "type": "Feature", "properties": { "marker-color":"red", "Store": "Coles", "Name": "Coles Edgeworth", "Type": "Coles Supermarkets", "latitude": -32.924403, "longitude": 151.622843 }, "geometry": { "type": "Point", "coordinates": [ 151.622843, -32.924403 ] } },
{ "type": "Feature", "properties": { "marker-color":"red", "Store": "Coles", "Name": "Coles Express Glendale", "Type": "Coles Express", "latitude": -32.92718, "longitude": 151.63729 }, "geometry": { "type": "Point", "coordinates": [ 151.63729, -32.92718 ] } },
{ "type": "Feature", "properties": { "marker-color":"red", "Store": "Coles", "Name": "Coles Glendale", "Type": "Coles Supermarkets", "latitude": -32.933634, "longitude": 151.640414 }, "geometry": { "type": "Point", "coordinates": [ 151.640414, -32.933634 ] } },
{ "type": "Feature", "properties": { "marker-color":"red", "Store": "Coles", "Name": "Coles Express Wallsend East", "Type": "Coles Express", "latitude": -32.906916, "longitude": 151.668928 }, "geometry": { "type": "Point", "coordinates": [ 151.668928, -32.906916 ] } },
{ "type": "Feature", "properties": { "marker-color":"red", "Store": "Coles", "Name": "Coles Wallsend", "Type": "Coles Supermarkets", "latitude": -32.903238, "longitude": 151.667392 }, "geometry": { "type": "Point", "coordinates": [ 151.667392, -32.903238 ] } },
{ "type": "Feature", "properties": { "marker-color":"red", "Store": "Coles", "Name": "Coles Express Wallsend West", "Type": "Coles Express", "latitude": -32.906596, "longitude": 151.669427 }, "geometry": { "type": "Point", "coordinates": [ 151.669427, -32.906596 ] } },
{ "type": "Feature", "properties": { "marker-color":"red", "Store": "Coles", "Name": "Coles Fletcher", "Type": "Coles Supermarkets", "latitude": -32.877317, "longitude": 151.647313 }, "geometry": { "type": "Point", "coordinates": [ 151.647313, -32.877317 ] } },
{ "type": "Feature", "properties": { "marker-color":"red", "Store": "Coles", "Name": "Coles Lake Macquarie", "Type": "Coles Supermarkets", "latitude": -32.984483, "longitude": 151.67268 }, "geometry": { "type": "Point", "coordinates": [ 151.67268, -32.984483 ] } },
{ "type": "Feature", "properties": { "marker-color":"red", "Store": "Coles", "Name": "Coles Express Charlestown", "Type": "Coles Express", "latitude": -32.96507, "longitude": 151.695182 }, "geometry": { "type": "Point", "coordinates": [ 151.695182, -32.96507 ] } },
{ "type": "Feature", "properties": { "marker-color":"red", "Store": "Coles", "Name": "Coles Charlestown", "Type": "Coles Supermarkets", "latitude": -32.963731, "longitude": 151.693007 }, "geometry": { "type": "Point", "coordinates": [ 151.693007, -32.963731 ] } },
{ "type": "Feature", "properties": { "marker-color":"red", "Store": "Coles", "Name": "Coles Express Kotara", "Type": "Coles Express", "latitude": -32.94071, "longitude": 151.70909 }, "geometry": { "type": "Point", "coordinates": [ 151.70909, -32.94071 ] } },
{ "type": "Feature", "properties": { "marker-color":"red", "Store": "Coles", "Name": "Coles Kurri Kurri", "Type": "Coles Supermarkets", "latitude": -32.819944, "longitude": 151.478517 }, "geometry": { "type": "Point", "coordinates": [ 151.478517, -32.819944 ] } },
{ "type": "Feature", "properties": { "marker-color":"red", "Store": "Coles", "Name": "Coles Express Hexham", "Type": "Coles Express", "latitude": -32.84673, "longitude": 151.693664 }, "geometry": { "type": "Point", "coordinates": [ 151.693664, -32.84673 ] } },
{ "type": "Feature", "properties": { "marker-color":"red", "Store": "Coles", "Name": "Coles Express Mayfield", "Type": "Coles Express", "latitude": -32.893461, "longitude": 151.722306 }, "geometry": { "type": "Point", "coordinates": [ 151.722306, -32.893461 ] } },
{ "type": "Feature", "properties": { "marker-color":"red", "Store": "Coles", "Name": "Coles Waratah", "Type": "Coles Supermarkets", "latitude": -32.907028, "longitude": 151.726479 }, "geometry": { "type": "Point", "coordinates": [ 151.726479, -32.907028 ] } },
{ "type": "Feature", "properties": { "marker-color":"red", "Store": "Coles", "Name": "Coles Kotara", "Type": "Coles Supermarkets", "latitude": -32.94208, "longitude": 151.710545 }, "geometry": { "type": "Point", "coordinates": [ 151.710545, -32.94208 ] } },
{ "type": "Feature", "properties": { "marker-color":"red", "Store": "Coles", "Name": "Coles Express Broadmeadow", "Type": "Coles Express", "latitude": -32.925124, "longitude": 151.736405 }, "geometry": { "type": "Point", "coordinates": [ 151.736405, -32.925124 ] } },
{ "type": "Feature", "properties": { "marker-color":"red", "Store": "Coles", "Name": "Coles Express Merewether", "Type": "Coles Express", "latitude": -32.938311, "longitude": 151.749239 }, "geometry": { "type": "Point", "coordinates": [ 151.749239, -32.938311 ] } },
{ "type": "Feature", "properties": { "marker-color":"red", "Store": "Coles", "Name": "Coles Newcastle", "Type": "Coles Supermarkets", "latitude": -32.938398, "longitude": 151.758625 }, "geometry": { "type": "Point", "coordinates": [ 151.758625, -32.938398 ] } },
{ "type": "Feature", "properties": { "marker-color":"red", "Store": "Coles", "Name": "Coles Marketown", "Type": "Coles Supermarkets", "latitude": -32.927974, "longitude": 151.760638 }, "geometry": { "type": "Point", "coordinates": [ 151.760638, -32.927974 ] } },
{ "type": "Feature", "properties": { "marker-color":"red", "Store": "Coles", "Name": "Coles Express Kooragang Island", "Type": "Coles Express", "latitude": -32.884391, "longitude": 151.762939 }, "geometry": { "type": "Point", "coordinates": [ 151.762939, -32.884391 ] } },
{ "type": "Feature", "properties": { "marker-color":"red", "Store": "Coles", "Name": "Coles Express Singleton (nsw)", "Type": "Coles Express", "latitude": -32.56303, "longitude": 151.17577 }, "geometry": { "type": "Point", "coordinates": [ 151.17577, -32.56303 ] } },
{ "type": "Feature", "properties": { "marker-color":"red", "Store": "Coles", "Name": "Coles Singleton", "Type": "Coles Supermarkets", "latitude": -32.566419, "longitude": 151.165026 }, "geometry": { "type": "Point", "coordinates": [ 151.165026, -32.566419 ] } },
{ "type": "Feature", "properties": { "marker-color":"red", "Store": "Coles", "Name": "Coles Sth Muswellbrook", "Type": "Coles Supermarkets", "latitude": -32.282348, "longitude": 150.895945 }, "geometry": { "type": "Point", "coordinates": [ 150.895945, -32.282348 ] } },
{ "type": "Feature", "properties": { "marker-color":"red", "Store": "Coles", "Name": "Coles Express Muswellbrook", "Type": "Coles Express", "latitude": -32.261012, "longitude": 150.889387 }, "geometry": { "type": "Point", "coordinates": [ 150.889387, -32.261012 ] } },
{ "type": "Feature", "properties": { "marker-color":"red", "Store": "Coles", "Name": "Coles Rutherford", "Type": "Coles Supermarkets", "latitude": -32.716197, "longitude": 151.528301 }, "geometry": { "type": "Point", "coordinates": [ 151.528301, -32.716197 ] } },
{ "type": "Feature", "properties": { "marker-color":"red", "Store": "Coles", "Name": "Coles Express Rutherford", "Type": "Coles Express", "latitude": -32.721102, "longitude": 151.53981 }, "geometry": { "type": "Point", "coordinates": [ 151.53981, -32.721102 ] } },
{ "type": "Feature", "properties": { "marker-color":"red", "Store": "Coles", "Name": "Coles Express Maitland", "Type": "Coles Express", "latitude": -32.738961, "longitude": 151.561965 }, "geometry": { "type": "Point", "coordinates": [ 151.561965, -32.738961 ] } },
{ "type": "Feature", "properties": { "marker-color":"red", "Store": "Coles", "Name": "Coles Green Hills", "Type": "Coles Supermarkets", "latitude": -32.762095, "longitude": 151.590975 }, "geometry": { "type": "Point", "coordinates": [ 151.590975, -32.762095 ] } },
{ "type": "Feature", "properties": { "marker-color":"red", "Store": "Coles", "Name": "Coles Scone", "Type": "Coles Supermarkets", "latitude": -32.052469, "longitude": 150.866274 }, "geometry": { "type": "Point", "coordinates": [ 150.866274, -32.052469 ] } },
{ "type": "Feature", "properties": { "marker-color":"red", "Store": "Coles", "Name": "Coles Thornton", "Type": "Coles Supermarkets", "latitude": -32.777006, "longitude": 151.639069 }, "geometry": { "type": "Point", "coordinates": [ 151.639069, -32.777006 ] } },
{ "type": "Feature", "properties": { "marker-color":"red", "Store": "Coles", "Name": "Coles Express Forster", "Type": "Coles Express", "latitude": -32.1949, "longitude": 152.514404 }, "geometry": { "type": "Point", "coordinates": [ 152.514404, -32.1949 ] } },
{ "type": "Feature", "properties": { "marker-color":"red", "Store": "Coles", "Name": "Coles Forster", "Type": "Coles Supermarkets", "latitude": -32.200096, "longitude": 152.519982 }, "geometry": { "type": "Point", "coordinates": [ 152.519982, -32.200096 ] } },
{ "type": "Feature", "properties": { "marker-color":"red", "Store": "Coles", "Name": "Coles Old Bar", "Type": "Coles Supermarkets", "latitude": -31.968964, "longitude": 152.582929 }, "geometry": { "type": "Point", "coordinates": [ 152.582929, -31.968964 ] } },
{ "type": "Feature", "properties": { "marker-color":"red", "Store": "Coles", "Name": "Coles Taree Manning Mall", "Type": "Coles Supermarkets", "latitude": -31.910009, "longitude": 152.460466 }, "geometry": { "type": "Point", "coordinates": [ 152.460466, -31.910009 ] } },
{ "type": "Feature", "properties": { "marker-color":"red", "Store": "Coles", "Name": "Coles Express Taree", "Type": "Coles Express", "latitude": -31.910817, "longitude": 152.465278 }, "geometry": { "type": "Point", "coordinates": [ 152.465278, -31.910817 ] } },
{ "type": "Feature", "properties": { "marker-color":"red", "Store": "Coles", "Name": "Coles Wingham", "Type": "Coles Supermarkets", "latitude": -31.868316, "longitude": 152.371297 }, "geometry": { "type": "Point", "coordinates": [ 152.371297, -31.868316 ] } },
{ "type": "Feature", "properties": { "marker-color":"red", "Store": "Coles", "Name": "Coles Express Bulahdelah", "Type": "Coles Express", "latitude": -32.409821, "longitude": 152.211219 }, "geometry": { "type": "Point", "coordinates": [ 152.211219, -32.409821 ] } },
{ "type": "Feature", "properties": { "marker-color":"red", "Store": "Coles", "Name": "Coles Tea Gardens", "Type": "Coles Supermarkets", "latitude": -32.652476, "longitude": 152.149527 }, "geometry": { "type": "Point", "coordinates": [ 152.149527, -32.652476 ] } },
{ "type": "Feature", "properties": { "marker-color":"red", "Store": "Coles", "Name": "Coles Laurieton", "Type": "Coles Supermarkets", "latitude": -31.648352, "longitude": 152.796507 }, "geometry": { "type": "Point", "coordinates": [ 152.796507, -31.648352 ] } },
{ "type": "Feature", "properties": { "marker-color":"red", "Store": "Coles", "Name": "Coles Express Nelson Bay", "Type": "Coles Express", "latitude": -32.722976, "longitude": 152.143585 }, "geometry": { "type": "Point", "coordinates": [ 152.143585, -32.722976 ] } },
{ "type": "Feature", "properties": { "marker-color":"red", "Store": "Coles", "Name": "Coles Medowie", "Type": "Coles Supermarkets", "latitude": -32.739975, "longitude": 151.86483 }, "geometry": { "type": "Point", "coordinates": [ 151.86483, -32.739975 ] } },
{ "type": "Feature", "properties": { "marker-color":"red", "Store": "Coles", "Name": "Coles Express Raymond Terrace", "Type": "Coles Express", "latitude": -32.760979, "longitude": 151.749101 }, "geometry": { "type": "Point", "coordinates": [ 151.749101, -32.760979 ] } },
{ "type": "Feature", "properties": { "marker-color":"red", "Store": "Coles", "Name": "Coles Express Motto Farm", "Type": "Coles Express", "latitude": -32.79826, "longitude": 151.71879 }, "geometry": { "type": "Point", "coordinates": [ 151.71879, -32.79826 ] } },
{ "type": "Feature", "properties": { "marker-color":"red", "Store": "Coles", "Name": "Coles Tanilba Bay", "Type": "Coles Supermarkets", "latitude": -32.735483, "longitude": 151.999464 }, "geometry": { "type": "Point", "coordinates": [ 151.999464, -32.735483 ] } },
{ "type": "Feature", "properties": { "marker-color":"red", "Store": "Coles", "Name": "Coles Salamander Bay", "Type": "Coles Supermarkets", "latitude": -32.736193, "longitude": 152.106757 }, "geometry": { "type": "Point", "coordinates": [ 152.106757, -32.736193 ] } },
{ "type": "Feature", "properties": { "marker-color":"red", "Store": "Coles", "Name": "Coles Express Salamander Bay", "Type": "Coles Express", "latitude": -32.73754, "longitude": 152.1067 }, "geometry": { "type": "Point", "coordinates": [ 152.1067, -32.73754 ] } },
{ "type": "Feature", "properties": { "marker-color":"red", "Store": "Coles", "Name": "Coles Cessnock", "Type": "Coles Supermarkets", "latitude": -32.835771, "longitude": 151.35427 }, "geometry": { "type": "Point", "coordinates": [ 151.35427, -32.835771 ] } },
{ "type": "Feature", "properties": { "marker-color":"red", "Store": "Coles", "Name": "Coles Express Cessnock", "Type": "Coles Express", "latitude": -32.838306, "longitude": 151.355439 }, "geometry": { "type": "Point", "coordinates": [ 151.355439, -32.838306 ] } },
{ "type": "Feature", "properties": { "marker-color":"red", "Store": "Coles", "Name": "Coles Mudgee", "Type": "Coles Supermarkets", "latitude": -32.592388, "longitude": 149.589117 }, "geometry": { "type": "Point", "coordinates": [ 149.589117, -32.592388 ] } },
{ "type": "Feature", "properties": { "marker-color":"red", "Store": "Coles", "Name": "Coles Express Mudgee", "Type": "Coles Express", "latitude": -32.593538, "longitude": 149.588282 }, "geometry": { "type": "Point", "coordinates": [ 149.588282, -32.593538 ] } },
{ "type": "Feature", "properties": { "marker-color":"red", "Store": "Coles", "Name": "Coles Express Coonabarabran", "Type": "Coles Express", "latitude": -31.277208, "longitude": 149.278816 }, "geometry": { "type": "Point", "coordinates": [ 149.278816, -31.277208 ] } },
{ "type": "Feature", "properties": { "marker-color":"red", "Store": "Coles", "Name": "Coles Wellington", "Type": "Coles Supermarkets", "latitude": -32.554805, "longitude": 148.942787 }, "geometry": { "type": "Point", "coordinates": [ 148.942787, -32.554805 ] } },
{ "type": "Feature", "properties": { "marker-color":"red", "Store": "Coles", "Name": "Coles Gunnedah", "Type": "Coles Supermarkets", "latitude": -30.975586, "longitude": 150.252202 }, "geometry": { "type": "Point", "coordinates": [ 150.252202, -30.975586 ] } },
{ "type": "Feature", "properties": { "marker-color":"red", "Store": "Coles", "Name": "Coles Express Tamworth", "Type": "Coles Express", "latitude": -31.112076, "longitude": 150.923221 }, "geometry": { "type": "Point", "coordinates": [ 150.923221, -31.112076 ] } },
{ "type": "Feature", "properties": { "marker-color":"red", "Store": "Coles", "Name": "Coles South Tamworth", "Type": "Coles Supermarkets", "latitude": -31.104636, "longitude": 150.918802 }, "geometry": { "type": "Point", "coordinates": [ 150.918802, -31.104636 ] } },
{ "type": "Feature", "properties": { "marker-color":"red", "Store": "Coles", "Name": "Coles Express Tamworth West", "Type": "Coles Express", "latitude": -31.095294, "longitude": 150.911999 }, "geometry": { "type": "Point", "coordinates": [ 150.911999, -31.095294 ] } },
{ "type": "Feature", "properties": { "marker-color":"red", "Store": "Coles", "Name": "Coles Tamworth", "Type": "Coles Supermarkets", "latitude": -31.09227, "longitude": 150.931969 }, "geometry": { "type": "Point", "coordinates": [ 150.931969, -31.09227 ] } },
{ "type": "Feature", "properties": { "marker-color":"red", "Store": "Coles", "Name": "Coles Tamworth North", "Type": "Coles Supermarkets", "latitude": -31.077159, "longitude": 150.917864 }, "geometry": { "type": "Point", "coordinates": [ 150.917864, -31.077159 ] } },
{ "type": "Feature", "properties": { "marker-color":"red", "Store": "Coles", "Name": "Coles Armidale", "Type": "Coles Supermarkets", "latitude": -30.51274, "longitude": 151.668683 }, "geometry": { "type": "Point", "coordinates": [ 151.668683, -30.51274 ] } },
{ "type": "Feature", "properties": { "marker-color":"red", "Store": "Coles", "Name": "Coles Express Armidale", "Type": "Coles Express", "latitude": -30.512996, "longitude": 151.669629 }, "geometry": { "type": "Point", "coordinates": [ 151.669629, -30.512996 ] } },
{ "type": "Feature", "properties": { "marker-color":"red", "Store": "Coles", "Name": "Coles Narrabri", "Type": "Coles Supermarkets", "latitude": -30.324301, "longitude": 149.782715 }, "geometry": { "type": "Point", "coordinates": [ 149.782715, -30.324301 ] } },
{ "type": "Feature", "properties": { "marker-color":"red", "Store": "Coles", "Name": "Coles Express Inverell", "Type": "Coles Express", "latitude": -29.778513, "longitude": 151.114919 }, "geometry": { "type": "Point", "coordinates": [ 151.114919, -29.778513 ] } },
{ "type": "Feature", "properties": { "marker-color":"red", "Store": "Coles", "Name": "Coles Inverell", "Type": "Coles Supermarkets", "latitude": -29.773954, "longitude": 151.110054 }, "geometry": { "type": "Point", "coordinates": [ 151.110054, -29.773954 ] } },
{ "type": "Feature", "properties": { "marker-color":"red", "Store": "Coles", "Name": "Coles Glen Innes", "Type": "Coles Supermarkets", "latitude": -29.739455, "longitude": 151.735661 }, "geometry": { "type": "Point", "coordinates": [ 151.735661, -29.739455 ] } },
{ "type": "Feature", "properties": { "marker-color":"red", "Store": "Coles", "Name": "Coles Toormina", "Type": "Coles Supermarkets", "latitude": -30.354203, "longitude": 153.091414 }, "geometry": { "type": "Point", "coordinates": [ 153.091414, -30.354203 ] } },
{ "type": "Feature", "properties": { "marker-color":"red", "Store": "Coles", "Name": "Coles Express Kempsey", "Type": "Coles Express", "latitude": -31.07059, "longitude": 152.845303 }, "geometry": { "type": "Point", "coordinates": [ 152.845303, -31.07059 ] } },
{ "type": "Feature", "properties": { "marker-color":"red", "Store": "Coles", "Name": "Coles Coffs Harbour", "Type": "Coles Supermarkets", "latitude": -30.299177, "longitude": 153.118578 }, "geometry": { "type": "Point", "coordinates": [ 153.118578, -30.299177 ] } },
{ "type": "Feature", "properties": { "marker-color":"red", "Store": "Coles", "Name": "Coles Kempsey", "Type": "Coles Supermarkets", "latitude": -31.081116, "longitude": 152.841772 }, "geometry": { "type": "Point", "coordinates": [ 152.841772, -31.081116 ] } },
{ "type": "Feature", "properties": { "marker-color":"red", "Store": "Coles", "Name": "Coles Express Coffs Harbour", "Type": "Coles Express", "latitude": -30.286476, "longitude": 153.123846 }, "geometry": { "type": "Point", "coordinates": [ 153.123846, -30.286476 ] } },
{ "type": "Feature", "properties": { "marker-color":"red", "Store": "Coles", "Name": "Coles Express Wauchope", "Type": "Coles Express", "latitude": -31.457335, "longitude": 152.73177 }, "geometry": { "type": "Point", "coordinates": [ 152.73177, -31.457335 ] } },
{ "type": "Feature", "properties": { "marker-color":"red", "Store": "Coles", "Name": "Coles Express Gilgandra", "Type": "Coles Express", "latitude": -31.70339, "longitude": 148.679531 }, "geometry": { "type": "Point", "coordinates": [ 148.679531, -31.70339 ] } },
{ "type": "Feature", "properties": { "marker-color":"red", "Store": "Coles", "Name": "Coles Moree", "Type": "Coles Supermarkets", "latitude": -29.460712, "longitude": 149.840765 }, "geometry": { "type": "Point", "coordinates": [ 149.840765, -29.460712 ] } },
{ "type": "Feature", "properties": { "marker-color":"red", "Store": "Coles", "Name": "Coles Express Moree", "Type": "Coles Express", "latitude": -29.461111, "longitude": 149.842053 }, "geometry": { "type": "Point", "coordinates": [ 149.842053, -29.461111 ] } },
{ "type": "Feature", "properties": { "marker-color":"red", "Store": "Coles", "Name": "Coles Express Dubbo", "Type": "Coles Express", "latitude": -32.255531, "longitude": 148.612259 }, "geometry": { "type": "Point", "coordinates": [ 148.612259, -32.255531 ] } },
{ "type": "Feature", "properties": { "marker-color":"red", "Store": "Coles", "Name": "Coles Dubbo", "Type": "Coles Supermarkets", "latitude": -32.249775, "longitude": 148.599261 }, "geometry": { "type": "Point", "coordinates": [ 148.599261, -32.249775 ] } },
{ "type": "Feature", "properties": { "marker-color":"red", "Store": "Coles", "Name": "Coles Express West Dubbo", "Type": "Coles Express", "latitude": -32.247437, "longitude": 148.593708 }, "geometry": { "type": "Point", "coordinates": [ 148.593708, -32.247437 ] } },
{ "type": "Feature", "properties": { "marker-color":"red", "Store": "Coles", "Name": "Coles Tenterfield", "Type": "Coles Supermarkets", "latitude": -29.056629, "longitude": 152.017471 }, "geometry": { "type": "Point", "coordinates": [ 152.017471, -29.056629 ] } },
{ "type": "Feature", "properties": { "marker-color":"red", "Store": "Coles", "Name": "Coles Express Boggabilla", "Type": "Coles Express", "latitude": -28.608783, "longitude": 150.351079 }, "geometry": { "type": "Point", "coordinates": [ 150.351079, -28.608783 ] } },
{ "type": "Feature", "properties": { "marker-color":"red", "Store": "Coles", "Name": "Coles Express Goondiwindi", "Type": "Coles Express", "latitude": -28.548296, "longitude": 150.307758 }, "geometry": { "type": "Point", "coordinates": [ 150.307758, -28.548296 ] } },
{ "type": "Feature", "properties": { "marker-color":"red", "Store": "Coles", "Name": "Coles Goondiwindi", "Type": "Coles Supermarkets", "latitude": -28.545735, "longitude": 150.304794 }, "geometry": { "type": "Point", "coordinates": [ 150.304794, -28.545735 ] } },
{ "type": "Feature", "properties": { "marker-color":"red", "Store": "Coles", "Name": "Coles Express Warwick (qld)", "Type": "Coles Express", "latitude": -28.218705, "longitude": 152.033892 }, "geometry": { "type": "Point", "coordinates": [ 152.033892, -28.218705 ] } },
{ "type": "Feature", "properties": { "marker-color":"red", "Store": "Coles", "Name": "Coles South Grafton", "Type": "Coles Supermarkets", "latitude": -29.706391, "longitude": 152.938865 }, "geometry": { "type": "Point", "coordinates": [ 152.938865, -29.706391 ] } },
{ "type": "Feature", "properties": { "marker-color":"red", "Store": "Coles", "Name": "Coles Express Grafton", "Type": "Coles Express", "latitude": -29.706352, "longitude": 152.939835 }, "geometry": { "type": "Point", "coordinates": [ 152.939835, -29.706352 ] } },
{ "type": "Feature", "properties": { "marker-color":"red", "Store": "Coles", "Name": "Coles Grafton", "Type": "Coles Supermarkets", "latitude": -29.689394, "longitude": 152.931945 }, "geometry": { "type": "Point", "coordinates": [ 152.931945, -29.689394 ] } },
{ "type": "Feature", "properties": { "marker-color":"red", "Store": "Coles", "Name": "Coles Grafton", "Type": "Coles Supermarkets", "latitude": -29.691728, "longitude": 152.93644 }, "geometry": { "type": "Point", "coordinates": [ 152.93644, -29.691728 ] } },
{ "type": "Feature", "properties": { "marker-color":"red", "Store": "Coles", "Name": "Coles Express Casino", "Type": "Coles Express", "latitude": -28.866206, "longitude": 153.045031 }, "geometry": { "type": "Point", "coordinates": [ 153.045031, -28.866206 ] } },
{ "type": "Feature", "properties": { "marker-color":"red", "Store": "Coles", "Name": "Coles Casino", "Type": "Coles Supermarkets", "latitude": -28.863015, "longitude": 153.050645 }, "geometry": { "type": "Point", "coordinates": [ 153.050645, -28.863015 ] } },
{ "type": "Feature", "properties": { "marker-color":"red", "Store": "Coles", "Name": "Coles Warwick", "Type": "Coles Supermarkets", "latitude": -28.215144, "longitude": 152.031918 }, "geometry": { "type": "Point", "coordinates": [ 152.031918, -28.215144 ] } },
{ "type": "Feature", "properties": { "marker-color":"red", "Store": "Coles", "Name": "Coles Narromine", "Type": "Coles Supermarkets", "latitude": -32.23222, "longitude": 148.238823 }, "geometry": { "type": "Point", "coordinates": [ 148.238823, -32.23222 ] } },
{ "type": "Feature", "properties": { "marker-color":"red", "Store": "Coles", "Name": "Coles Lake Innes Village", "Type": "Coles Supermarkets", "latitude": -31.457462, "longitude": 152.873834 }, "geometry": { "type": "Point", "coordinates": [ 152.873834, -31.457462 ] } },
{ "type": "Feature", "properties": { "marker-color":"red", "Store": "Coles", "Name": "Coles Lighthouse Beach", "Type": "Coles Supermarkets", "latitude": -31.477537, "longitude": 152.914264 }, "geometry": { "type": "Point", "coordinates": [ 152.914264, -31.477537 ] } },
{ "type": "Feature", "properties": { "marker-color":"red", "Store": "Coles", "Name": "Coles South West Rocks", "Type": "Coles Supermarkets", "latitude": -30.907424, "longitude": 153.042224 }, "geometry": { "type": "Point", "coordinates": [ 153.042224, -30.907424 ] } },
{ "type": "Feature", "properties": { "marker-color":"red", "Store": "Coles", "Name": "Coles Port Macquarie", "Type": "Coles Supermarkets", "latitude": -31.433929, "longitude": 152.908166 }, "geometry": { "type": "Point", "coordinates": [ 152.908166, -31.433929 ] } },
{ "type": "Feature", "properties": { "marker-color":"red", "Store": "Coles", "Name": "Coles Express Port Macquarie", "Type": "Coles Express", "latitude": -31.43431, "longitude": 152.904936 }, "geometry": { "type": "Point", "coordinates": [ 152.904936, -31.43431 ] } },
{ "type": "Feature", "properties": { "marker-color":"red", "Store": "Coles", "Name": "Coles Moonee Beach", "Type": "Coles Supermarkets", "latitude": -30.204838, "longitude": 153.149308 }, "geometry": { "type": "Point", "coordinates": [ 153.149308, -30.204838 ] } },
{ "type": "Feature", "properties": { "marker-color":"red", "Store": "Coles", "Name": "Coles Express Woolgoolga", "Type": "Coles Express", "latitude": -30.16434, "longitude": 153.18148 }, "geometry": { "type": "Point", "coordinates": [ 153.18148, -30.16434 ] } },
{ "type": "Feature", "properties": { "marker-color":"red", "Store": "Coles", "Name": "Coles Express Halfway Creek", "Type": "Coles Express", "latitude": -29.934899, "longitude": 153.094222 }, "geometry": { "type": "Point", "coordinates": [ 153.094222, -29.934899 ] } },
{ "type": "Feature", "properties": { "marker-color":"red", "Store": "Coles", "Name": "Coles Yamba", "Type": "Coles Supermarkets", "latitude": -29.42764, "longitude": 153.32704 }, "geometry": { "type": "Point", "coordinates": [ 153.32704, -29.42764 ] } },
{ "type": "Feature", "properties": { "marker-color":"red", "Store": "Coles", "Name": "Coles Alstonville", "Type": "Coles Supermarkets", "latitude": -28.84233, "longitude": 153.440626 }, "geometry": { "type": "Point", "coordinates": [ 153.440626, -28.84233 ] } },
{ "type": "Feature", "properties": { "marker-color":"red", "Store": "Coles", "Name": "Coles Goonellabah", "Type": "Coles Supermarkets", "latitude": -28.823521, "longitude": 153.325942 }, "geometry": { "type": "Point", "coordinates": [ 153.325942, -28.823521 ] } },
{ "type": "Feature", "properties": { "marker-color":"red", "Store": "Coles", "Name": "Coles Ballina", "Type": "Coles Supermarkets", "latitude": -28.859572, "longitude": 153.561172 }, "geometry": { "type": "Point", "coordinates": [ 153.561172, -28.859572 ] } },
{ "type": "Feature", "properties": { "marker-color":"red", "Store": "Coles", "Name": "Coles Express Lismore Dawson St", "Type": "Coles Express", "latitude": -28.81151, "longitude": 153.28 }, "geometry": { "type": "Point", "coordinates": [ 153.28, -28.81151 ] } },
{ "type": "Feature", "properties": { "marker-color":"red", "Store": "Coles", "Name": "Coles Lismore", "Type": "Coles Supermarkets", "latitude": -28.810276, "longitude": 153.2861 }, "geometry": { "type": "Point", "coordinates": [ 153.2861, -28.810276 ] } },
{ "type": "Feature", "properties": { "marker-color":"red", "Store": "Coles", "Name": "Coles Ocean Shores", "Type": "Coles Supermarkets", "latitude": -28.524431, "longitude": 153.54648 }, "geometry": { "type": "Point", "coordinates": [ 153.54648, -28.524431 ] } },
{ "type": "Feature", "properties": { "marker-color":"red", "Store": "Coles", "Name": "Coles Murwillumbah", "Type": "Coles Supermarkets", "latitude": -28.328059, "longitude": 153.396091 }, "geometry": { "type": "Point", "coordinates": [ 153.396091, -28.328059 ] } },
{ "type": "Feature", "properties": { "marker-color":"red", "Store": "Coles", "Name": "Coles Express Murwillumbah", "Type": "Coles Express", "latitude": -28.32952, "longitude": 153.40253 }, "geometry": { "type": "Point", "coordinates": [ 153.40253, -28.32952 ] } },
{ "type": "Feature", "properties": { "marker-color":"red", "Store": "Coles", "Name": "Coles Beaudesert", "Type": "Coles Supermarkets", "latitude": -27.989533, "longitude": 152.998844 }, "geometry": { "type": "Point", "coordinates": [ 152.998844, -27.989533 ] } },
{ "type": "Feature", "properties": { "marker-color":"red", "Store": "Coles", "Name": "Coles Express Hastings Point", "Type": "Coles Express", "latitude": -28.36883, "longitude": 153.57268 }, "geometry": { "type": "Point", "coordinates": [ 153.57268, -28.36883 ] } },
{ "type": "Feature", "properties": { "marker-color":"red", "Store": "Coles", "Name": "Coles Flagstone", "Type": "Coles Supermarkets", "latitude": -27.809317, "longitude": 152.949639 }, "geometry": { "type": "Point", "coordinates": [ 152.949639, -27.809317 ] } },
{ "type": "Feature", "properties": { "marker-color":"red", "Store": "Coles", "Name": "Coles Jimboomba", "Type": "Coles Supermarkets", "latitude": -27.831851, "longitude": 153.026331 }, "geometry": { "type": "Point", "coordinates": [ 153.026331, -27.831851 ] } },
{ "type": "Feature", "properties": { "marker-color":"red", "Store": "Coles", "Name": "Coles Casuarina", "Type": "Coles Supermarkets", "latitude": -28.29721, "longitude": 153.570242 }, "geometry": { "type": "Point", "coordinates": [ 153.570242, -28.29721 ] } },
{ "type": "Feature", "properties": { "marker-color":"red", "Store": "Coles", "Name": "Coles Banora Central", "Type": "Coles Supermarkets", "latitude": -28.213609, "longitude": 153.521894 }, "geometry": { "type": "Point", "coordinates": [ 153.521894, -28.213609 ] } },
{ "type": "Feature", "properties": { "marker-color":"red", "Store": "Coles", "Name": "Coles Banora Point", "Type": "Coles Supermarkets", "latitude": -28.214465, "longitude": 153.541501 }, "geometry": { "type": "Point", "coordinates": [ 153.541501, -28.214465 ] } },